Data/ERNST_i97_a500_r00_t120_stiff/ERNST_i97_a500_r00 Access.csv

"Access","Start Time (UTCG)","Stop Time (UTCG)","Duration (sec)"
1,1 Jan 2020 13:53:42.415,1 Jan 2020 14:00:10.579,388.163
2,1 Jan 2020 15:24:05.895,1 Jan 2020 15:35:25.384,679.489
3,1 Jan 2020 16:58:39.939,1 Jan 2020 17:08:54.183,614.244
4,2 Jan 2020 02:52:59.678,2 Jan 2020 02:56:03.859,184.181
5,2 Jan 2020 04:23:45.526,2 Jan 2020 04:35:02.077,676.551
6,2 Jan 2020 05:57:47.188,2 Jan 2020 06:08:15.499,628.310
7,2 Jan 2020 13:36:35.385,2 Jan 2020 13:40:33.154,237.768
8,2 Jan 2020 15:05:42.042,2 Jan 2020 15:16:35.088,653.046
9,2 Jan 2020 16:39:26.878,2 Jan 2020 16:50:24.366,657.488
10,3 Jan 2020 04:05:11.770,3 Jan 2020 04:15:56.882,645.112
11,3 Jan 2020 05:38:54.531,3 Jan 2020 05:49:57.825,663.294
12,3 Jan 2020 07:14:36.460,3 Jan 2020 07:19:34.459,297.999
13,3 Jan 2020 14:47:27.578,3 Jan 2020 14:57:41.150,613.572
14,3 Jan 2020 16:20:25.344,3 Jan 2020 16:31:48.908,683.564
15,3 Jan 2020 17:58:32.341,3 Jan 2020 18:03:15.237,282.896
16,4 Jan 2020 03:46:44.285,4 Jan 2020 03:56:39.475,595.190
17,4 Jan 2020 05:20:05.371,4 Jan 2020 05:31:30.921,685.549
18,4 Jan 2020 06:55:09.838,4 Jan 2020 07:02:14.585,424.747
19,4 Jan 2020 14:29:23.362,4 Jan 2020 14:38:42.803,559.441
20,4 Jan 2020 16:01:33.945,4 Jan 2020 16:13:09.067,695.122
21,4 Jan 2020 17:38:08.053,4 Jan 2020 17:45:37.215,449.162
22,5 Jan 2020 03:28:26.093,5 Jan 2020 03:37:06.574,520.481
23,5 Jan 2020 05:01:19.539,5 Jan 2020 05:12:55.025,695.486
24,5 Jan 2020 06:35:59.485,5 Jan 2020 06:44:32.376,512.891
25,5 Jan 2020 14:11:31.107,5 Jan 2020 14:19:38.423,487.316
26,5 Jan 2020 15:42:51.915,5 Jan 2020 15:54:25.535,693.620
27,5 Jan 2020 17:18:20.937,5 Jan 2020 17:27:28.860,547.922
28,6 Jan 2020 03:10:24.377,6 Jan 2020 03:17:10.645,406.268
29,6 Jan 2020 04:42:37.152,6 Jan 2020 04:54:10.019,692.868
30,6 Jan 2020 06:16:57.318,6 Jan 2020 06:26:35.985,578.667
31,6 Jan 2020 13:53:54.709,6 Jan 2020 14:00:24.201,389.492
32,6 Jan 2020 15:24:18.912,6 Jan 2020 15:35:38.634,679.721
33,6 Jan 2020 16:58:53.551,6 Jan 2020 17:09:07.180,613.629
34,7 Jan 2020 02:53:10.834,7 Jan 2020 02:56:19.564,188.730
35,7 Jan 2020 04:23:58.629,7 Jan 2020 04:35:15.460,676.831
36,7 Jan 2020 05:58:00.516,7 Jan 2020 06:08:28.326,627.810
37,7 Jan 2020 13:36:47.144,7 Jan 2020 13:40:47.239,240.094
38,7 Jan 2020 15:05:54.953,7 Jan 2020 15:16:48.375,653.423
39,7 Jan 2020 16:39:40.345,7 Jan 2020 16:50:37.439,657.094
40,8 Jan 2020 04:05:24.808,8 Jan 2020 04:16:10.398,645.590
41,8 Jan 2020 05:39:07.813,8 Jan 2020 05:50:10.765,662.952
42,8 Jan 2020 07:14:50.368,8 Jan 2020 07:19:46.428,296.060
43,8 Jan 2020 14:47:40.376,8 Jan 2020 14:57:54.481,614.105
44,8 Jan 2020 16:20:38.688,8 Jan 2020 16:32:02.037,683.348
45,8 Jan 2020 17:58:47.134,8 Jan 2020 18:03:27.294,280.160
46,9 Jan 2020 03:46:57.233,9 Jan 2020 03:56:53.150,595.917
47,9 Jan 2020 05:20:18.612,9 Jan 2020 05:31:43.968,685.356
48,9 Jan 2020 06:55:23.434,9 Jan 2020 07:02:26.942,423.509
49,9 Jan 2020 14:29:36.035,9 Jan 2020 14:38:56.189,560.155
50,9 Jan 2020 16:01:47.174,9 Jan 2020 16:13:22.239,695.065
51,9 Jan 2020 17:38:22.142,9 Jan 2020 17:45:49.891,447.749
52,10 Jan 2020 03:28:38.900,10 Jan 2020 03:37:20.464,521.564
53,10 Jan 2020 05:01:32.738,10 Jan 2020 05:13:08.179,695.441
54,10 Jan 2020 06:36:12.949,10 Jan 2020 06:44:44.930,511.981
55,10 Jan 2020 14:11:43.626,10 Jan 2020 14:19:51.892,488.265
56,10 Jan 2020 15:43:05.037,10 Jan 2020 15:54:38.747,693.709
57,10 Jan 2020 17:18:34.740,10 Jan 2020 17:27:41.743,547.004
58,11 Jan 2020 03:10:36.902,11 Jan 2020 03:17:24.895,407.992
59,11 Jan 2020 04:42:50.307,11 Jan 2020 04:54:23.283,692.977
60,11 Jan 2020 06:17:10.703,11 Jan 2020 06:26:48.687,577.984
61,11 Jan 2020 13:54:07.007,11 Jan 2020 14:00:37.820,390.813
62,11 Jan 2020 15:24:31.930,11 Jan 2020 15:35:51.882,679.952
63,11 Jan 2020 16:59:07.165,11 Jan 2020 17:09:20.177,613.012
64,12 Jan 2020 02:53:22.048,12 Jan 2020 02:56:35.209,193.161
65,12 Jan 2020 04:24:11.733,12 Jan 2020 04:35:28.842,677.109
66,12 Jan 2020 05:58:13.845,12 Jan 2020 06:08:41.153,627.308
67,12 Jan 2020 13:36:58.915,12 Jan 2020 13:41:01.313,242.399
68,12 Jan 2020 15:06:07.865,12 Jan 2020 15:17:01.662,653.798
69,12 Jan 2020 16:39:53.814,12 Jan 2020 16:50:50.512,656.698
70,13 Jan 2020 04:05:37.848,13 Jan 2020 04:16:23.912,646.065
71,13 Jan 2020 05:39:21.095,13 Jan 2020 05:50:23.704,662.608
72,13 Jan 2020 07:15:04.281,13 Jan 2020 07:19:58.390,294.109
73,13 Jan 2020 14:47:53.176,13 Jan 2020 14:58:07.812,614.636
74,13 Jan 2020 16:20:52.033,13 Jan 2020 16:32:15.165,683.132
75,13 Jan 2020 17:59:01.946,13 Jan 2020 18:03:39.333,277.387
76,14 Jan 2020 03:47:10.184,14 Jan 2020 03:57:06.824,596.640
77,14 Jan 2020 05:20:31.854,14 Jan 2020 05:31:57.016,685.162
78,14 Jan 2020 06:55:37.030,14 Jan 2020 07:02:39.293,422.262
79,14 Jan 2020 14:29:48.709,14 Jan 2020 14:39:09.577,560.868
80,14 Jan 2020 16:02:00.405,14 Jan 2020 16:13:35.413,695.007
81,14 Jan 2020 17:38:36.237,14 Jan 2020 17:46:02.563,446.326
82,15 Jan 2020 03:28:51.711,15 Jan 2020 03:37:34.352,522.640
83,15 Jan 2020 05:01:45.939,15 Jan 2020 05:13:21.334,695.394
84,15 Jan 2020 06:36:26.415,15 Jan 2020 06:44:57.483,511.069
85,15 Jan 2020 14:11:56.148,15 Jan 2020 14:20:05.362,489.214
86,15 Jan 2020 15:43:18.163,15 Jan 2020 15:54:51.959,693.797
87,15 Jan 2020 17:18:48.547,15 Jan 2020 17:27:54.626,546.079
88,16 Jan 2020 03:10:49.436,16 Jan 2020 03:17:39.139,409.703
89,16 Jan 2020 04:43:03.465,16 Jan 2020 04:54:36.548,693.083
90,16 Jan 2020 06:17:24.091,16 Jan 2020 06:27:01.389,577.298
91,16 Jan 2020 13:54:19.308,16 Jan 2020 14:00:51.441,392.132
92,16 Jan 2020 15:24:44.951,16 Jan 2020 15:36:05.132,680.181
93,16 Jan 2020 16:59:20.784,16 Jan 2020 17:09:33.175,612.392
94,17 Jan 2020 02:53:33.319,17 Jan 2020 02:56:50.801,197.482
95,17 Jan 2020 04:24:24.840,17 Jan 2020 04:35:42.224,677.384
96,17 Jan 2020 05:58:27.176,17 Jan 2020 06:08:53.980,626.804
97,17 Jan 2020 13:37:10.698,17 Jan 2020 13:41:15.381,244.683
98,17 Jan 2020 15:06:20.780,17 Jan 2020 15:17:14.952,654.172
99,17 Jan 2020 16:40:07.286,17 Jan 2020 16:51:03.586,656.299
100,18 Jan 2020 04:05:50.891,18 Jan 2020 04:16:37.428,646.537
101,18 Jan 2020 05:39:34.381,18 Jan 2020 05:50:36.644,662.263
102,18 Jan 2020 07:15:18.205,18 Jan 2020 07:20:10.346,292.141
103,18 Jan 2020 14:48:05.979,18 Jan 2020 14:58:21.145,615.166
104,18 Jan 2020 16:21:05.381,18 Jan 2020 16:32:28.295,682.914
105,18 Jan 2020 17:59:16.778,18 Jan 2020 18:03:51.358,274.580
106,19 Jan 2020 03:47:23.138,19 Jan 2020 03:57:20.499,597.360
107,19 Jan 2020 05:20:45.099,19 Jan 2020 05:32:10.064,684.965
108,19 Jan 2020 06:55:50.633,19 Jan 2020 07:02:51.642,421.008
109,19 Jan 2020 14:30:01.387,19 Jan 2020 14:39:22.966,561.578
110,19 Jan 2020 16:02:13.640,19 Jan 2020 16:13:48.588,694.947
111,19 Jan 2020 17:38:50.339,19 Jan 2020 17:46:15.239,444.901
112,20 Jan 2020 03:29:04.526,20 Jan 2020 03:37:48.239,523.713
113,20 Jan 2020 05:01:59.143,20 Jan 2020 05:13:34.489,695.345
114,20 Jan 2020 06:36:39.881,20 Jan 2020 06:45:10.036,510.156
115,20 Jan 2020 14:12:08.674,20 Jan 2020 14:20:18.832,490.158
116,20 Jan 2020 15:43:31.291,20 Jan 2020 15:55:05.174,693.883
117,20 Jan 2020 17:19:02.358,20 Jan 2020 17:28:07.510,545.152
118,21 Jan 2020 03:11:01.974,21 Jan 2020 03:17:53.381,411.407
119,21 Jan 2020 04:43:16.624,21 Jan 2020 04:54:49.813,693.188
120,21 Jan 2020 06:17:37.482,21 Jan 2020 06:27:14.090,576.608
121,21 Jan 2020 13:54:31.616,21 Jan 2020 14:01:05.058,393.442
122,21 Jan 2020 15:24:57.975,21 Jan 2020 15:36:18.384,680.408
123,21 Jan 2020 16:59:34.405,21 Jan 2020 17:09:46.174,611.769
124,22 Jan 2020 02:53:44.637,22 Jan 2020 02:57:06.348,201.711
125,22 Jan 2020 04:24:37.949,22 Jan 2020 04:35:55.606,677.658
126,22 Jan 2020 05:58:40.510,22 Jan 2020 06:09:06.806,626.296
127,22 Jan 2020 13:37:22.497,22 Jan 2020 13:41:29.435,246.938
128,22 Jan 2020 15:06:33.698,22 Jan 2020 15:17:28.241,654.543
129,22 Jan 2020 16:40:20.758,22 Jan 2020 16:51:16.660,655.902
130,23 Jan 2020 04:06:03.935,23 Jan 2020 04:16:50.942,647.007
131,23 Jan 2020 05:39:47.669,23 Jan 2020 05:50:49.585,661.916
132,23 Jan 2020 07:15:32.138,23 Jan 2020 07:20:22.293,290.155
133,23 Jan 2020 14:48:18.787,23 Jan 2020 14:58:34.478,615.691
134,23 Jan 2020 16:21:18.725,23 Jan 2020 16:32:41.425,682.700
135,23 Jan 2020 17:59:31.627,23 Jan 2020 18:04:03.371,271.744
136,24 Jan 2020 03:47:36.094,24 Jan 2020 03:57:34.171,598.078
137,24 Jan 2020 05:20:58.343,24 Jan 2020 05:32:23.111,684.768
138,24 Jan 2020 06:56:04.239,24 Jan 2020 07:03:03.987,419.748
139,24 Jan 2020 14:30:14.068,24 Jan 2020 14:39:36.354,562.286
140,24 Jan 2020 16:02:26.876,24 Jan 2020 16:14:01.762,694.886
141,24 Jan 2020 17:39:04.445,24 Jan 2020 17:46:27.908,443.463
142,25 Jan 2020 03:29:17.343,25 Jan 2020 03:38:02.124,524.781
143,25 Jan 2020 05:02:12.348,25 Jan 2020 05:13:47.643,695.295
144,25 Jan 2020 06:36:53.352,25 Jan 2020 06:45:22.587,509.235
145,25 Jan 2020 14:12:21.203,25 Jan 2020 14:20:32.301,491.099
146,25 Jan 2020 15:43:44.421,25 Jan 2020 15:55:18.388,693.967
147,25 Jan 2020 17:19:16.172,25 Jan 2020 17:28:20.392,544.220
148,26 Jan 2020 03:11:14.518,26 Jan 2020 03:18:07.617,413.098
149,26 Jan 2020 04:43:29.785,26 Jan 2020 04:55:03.076,693.292
150,26 Jan 2020 06:17:50.874,26 Jan 2020 06:27:26.790,575.917
151,26 Jan 2020 13:54:43.926,26 Jan 2020 14:01:18.675,394.749
152,26 Jan 2020 15:25:11.001,26 Jan 2020 15:36:31.635,680.634
153,26 Jan 2020 16:59:48.029,26 Jan 2020 17:09:59.172,611.143
154,27 Jan 2020 02:53:56.005,27 Jan 2020 02:57:21.844,205.839
155,27 Jan 2020 04:24:51.059,27 Jan 2020 04:36:08.988,677.929
156,27 Jan 2020 05:58:53.844,27 Jan 2020 06:09:19.632,625.788
157,27 Jan 2020 13:37:34.304,27 Jan 2020 13:41:43.482,249.178
158,27 Jan 2020 15:06:46.617,27 Jan 2020 15:17:41.531,654.914
159,27 Jan 2020 16:40:34.236,27 Jan 2020 16:51:29.734,655.498
160,28 Jan 2020 04:06:16.981,28 Jan 2020 04:17:04.455,647.474
161,28 Jan 2020 05:40:00.957,28 Jan 2020 05:51:02.524,661.567
162,28 Jan 2020 07:15:46.078,28 Jan 2020 07:20:34.235,288.157
163,28 Jan 2020 14:48:31.597,28 Jan 2020 14:58:47.812,616.215
164,28 Jan 2020 16:21:32.077,28 Jan 2020 16:32:54.555,682.478
165,28 Jan 2020 17:59:46.499,28 Jan 2020 18:04:15.363,268.864
166,29 Jan 2020 03:47:49.053,29 Jan 2020 03:57:47.843,598.791
167,29 Jan 2020 05:21:11.590,29 Jan 2020 05:32:36.159,684.569
168,29 Jan 2020 06:56:17.847,29 Jan 2020 07:03:16.332,418.485
169,29 Jan 2020 14:30:26.751,29 Jan 2020 14:39:49.744,562.993
170,29 Jan 2020 16:02:40.116,29 Jan 2020 16:14:14.939,694.822
171,29 Jan 2020 17:39:18.559,29 Jan 2020 17:46:40.573,442.014
172,30 Jan 2020 03:29:30.165,30 Jan 2020 03:38:16.003,525.838
173,30 Jan 2020 05:02:25.555,30 Jan 2020 05:14:00.797,695.243
174,30 Jan 2020 06:37:06.826,30 Jan 2020 06:45:35.138,508.312
175,30 Jan 2020 14:12:33.734,30 Jan 2020 14:20:45.773,492.039
176,30 Jan 2020 15:43:57.554,30 Jan 2020 15:55:31.603,694.049
177,30 Jan 2020 17:19:29.992,30 Jan 2020 17:28:33.273,543.282
178,31 Jan 2020 03:11:27.071,31 Jan 2020 03:18:21.849,414.778
179,31 Jan 2020 04:43:42.948,31 Jan 2020 04:55:16.341,693.393
180,31 Jan 2020 06:18:04.268,31 Jan 2020 06:27:39.491,575.223
181,31 Jan 2020 13:54:56.241,31 Jan 2020 14:01:32.292,396.052
182,31 Jan 2020 15:25:24.030,31 Jan 2020 15:36:44.888,680.859
183,31 Jan 2020 17:00:01.658,31 Jan 2020 17:10:12.170,610.513
184,1 Feb 2020 02:54:07.420,1 Feb 2020 02:57:37.298,209.879
185,1 Feb 2020 04:25:04.172,1 Feb 2020 04:36:22.370,678.199
186,1 Feb 2020 05:59:07.182,1 Feb 2020 06:09:32.458,625.277
187,1 Feb 2020 13:37:46.125,1 Feb 2020 13:41:57.522,251.398
188,1 Feb 2020 15:06:59.541,1 Feb 2020 15:17:54.823,655.283
189,1 Feb 2020 16:40:47.717,1 Feb 2020 16:51:42.810,655.093
190,2 Feb 2020 04:06:30.031,2 Feb 2020 04:17:17.970,647.939
191,2 Feb 2020 05:40:14.249,2 Feb 2020 05:51:15.464,661.216
192,2 Feb 2020 07:16:00.028,2 Feb 2020 07:20:46.170,286.142
193,2 Feb 2020 14:48:44.408,2 Feb 2020 14:59:01.147,616.739
194,2 Feb 2020 16:21:45.433,2 Feb 2020 16:33:07.688,682.255
195,2 Feb 2020 18:00:01.393,2 Feb 2020 18:04:27.339,265.946
196,3 Feb 2020 03:48:02.014,3 Feb 2020 03:58:01.516,599.501
197,3 Feb 2020 05:21:24.840,3 Feb 2020 05:32:49.207,684.367
198,3 Feb 2020 06:56:31.461,3 Feb 2020 07:03:28.675,417.214
199,3 Feb 2020 14:30:39.437,3 Feb 2020 14:40:03.134,563.697
200,3 Feb 2020 16:02:53.359,3 Feb 2020 16:14:28.116,694.757
201,3 Feb 2020 17:39:32.679,3 Feb 2020 17:46:53.236,440.557
202,4 Feb 2020 03:29:42.990,4 Feb 2020 03:38:29.886,526.896
203,4 Feb 2020 05:02:38.764,4 Feb 2020 05:14:13.952,695.189
204,4 Feb 2020 06:37:20.304,4 Feb 2020 06:45:47.688,507.384
205,4 Feb 2020 14:12:46.270,4 Feb 2020 14:20:59.244,492.974
206,4 Feb 2020 15:44:10.690,4 Feb 2020 15:55:44.820,694.130
207,4 Feb 2020 17:19:43.815,4 Feb 2020 17:28:46.155,542.340
208,5 Feb 2020 03:11:39.628,5 Feb 2020 03:18:36.077,416.449
209,5 Feb 2020 04:43:56.114,5 Feb 2020 04:55:29.606,693.492
210,5 Feb 2020 06:18:17.666,5 Feb 2020 06:27:52.192,574.526
211,5 Feb 2020 13:55:08.560,5 Feb 2020 14:01:45.907,397.347
212,5 Feb 2020 15:25:37.061,5 Feb 2020 15:36:58.142,681.081
213,5 Feb 2020 17:00:15.289,5 Feb 2020 17:10:25.170,609.880
214,6 Feb 2020 02:54:18.874,6 Feb 2020 02:57:52.713,213.839
215,6 Feb 2020 04:25:17.286,6 Feb 2020 04:36:35.752,678.466
216,6 Feb 2020 05:59:20.521,6 Feb 2020 06:09:45.284,624.763
217,6 Feb 2020 13:37:57.959,6 Feb 2020 13:42:11.552,253.593
218,6 Feb 2020 15:07:12.466,6 Feb 2020 15:18:08.115,655.650
219,6 Feb 2020 16:41:01.200,6 Feb 2020 16:51:55.885,654.685
220,7 Feb 2020 04:06:43.081,7 Feb 2020 04:17:31.483,648.402
221,7 Feb 2020 05:40:27.541,7 Feb 2020 05:51:28.403,660.862
222,7 Feb 2020 07:16:13.987,7 Feb 2020 07:20:58.096,284.109
223,7 Feb 2020 14:48:57.221,7 Feb 2020 14:59:14.483,617.262
224,7 Feb 2020 16:21:58.790,7 Feb 2020 16:33:20.819,682.030
225,7 Feb 2020 18:00:16.306,7 Feb 2020 18:04:39.296,262.990
226,8 Feb 2020 03:48:14.977,8 Feb 2020 03:58:15.186,600.209
227,8 Feb 2020 05:21:38.096,8 Feb 2020 05:33:02.254,684.158
228,8 Feb 2020 06:56:45.077,8 Feb 2020 07:03:41.015,415.938
229,8 Feb 2020 14:30:52.125,8 Feb 2020 14:40:16.524,564.399
230,8 Feb 2020 16:03:06.603,8 Feb 2020 16:14:41.293,694.690
231,8 Feb 2020 17:39:46.804,8 Feb 2020 17:47:05.895,439.091
232,9 Feb 2020 03:29:55.817,9 Feb 2020 03:38:43.766,527.949
233,9 Feb 2020 05:02:51.973,9 Feb 2020 05:14:27.106,695.133
234,9 Feb 2020 06:37:33.782,9 Feb 2020 06:46:00.236,506.454
235,9 Feb 2020 14:12:58.807,9 Feb 2020 14:21:12.714,493.908
236,9 Feb 2020 15:44:23.827,9 Feb 2020 15:55:58.037,694.210
237,9 Feb 2020 17:19:57.642,9 Feb 2020 17:28:59.034,541.393
238,10 Feb 2020 03:11:52.191,10 Feb 2020 03:18:50.299,418.108
239,10 Feb 2020 04:44:09.280,10 Feb 2020 04:55:42.869,693.590
240,10 Feb 2020 06:18:31.063,10 Feb 2020 06:28:04.891,573.827
241,10 Feb 2020 13:55:20.882,10 Feb 2020 14:01:59.522,398.640
242,10 Feb 2020 15:25:50.093,10 Feb 2020 15:37:11.396,681.303
243,10 Feb 2020 17:00:28.923,10 Feb 2020 17:10:38.167,609.244
244,11 Feb 2020 02:54:30.373,11 Feb 2020 02:58:08.085,217.712
245,11 Feb 2020 04:25:30.402,11 Feb 2020 04:36:49.133,678.731
246,11 Feb 2020 05:59:33.860,11 Feb 2020 06:09:58.109,624.249
247,11 Feb 2020 13:38:09.801,11 Feb 2020 13:42:25.576,255.775
248,11 Feb 2020 15:07:25.392,11 Feb 2020 15:18:21.408,656.016
249,11 Feb 2020 16:41:14.686,11 Feb 2020 16:52:08.960,654.274
250,12 Feb 2020 04:06:56.134,12 Feb 2020 04:17:44.996,648.862
251,12 Feb 2020 05:40:40.835,12 Feb 2020 05:51:41.342,660.507
252,12 Feb 2020 07:16:27.952,12 Feb 2020 07:21:10.017,282.065
253,12 Feb 2020 14:49:10.035,12 Feb 2020 14:59:27.819,617.784
254,12 Feb 2020 16:22:12.150,12 Feb 2020 16:33:33.952,681.802
255,12 Feb 2020 18:00:31.244,12 Feb 2020 18:04:51.231,259.986
256,13 Feb 2020 03:48:27.944,13 Feb 2020 03:58:28.856,600.911
257,13 Feb 2020 05:21:51.344,13 Feb 2020 05:33:15.302,683.958
258,13 Feb 2020 06:56:58.695,13 Feb 2020 07:03:53.354,414.659
259,13 Feb 2020 14:31:04.816,13 Feb 2020 14:40:29.917,565.101
260,13 Feb 2020 16:03:19.850,13 Feb 2020 16:14:54.471,694.621
261,13 Feb 2020 17:40:00.938,13 Feb 2020 17:47:18.550,437.612
262,14 Feb 2020 03:30:08.650,14 Feb 2020 03:38:57.645,528.994
263,14 Feb 2020 05:03:05.186,14 Feb 2020 05:14:40.261,695.075
264,14 Feb 2020 06:37:47.263,14 Feb 2020 06:46:12.785,505.522
265,14 Feb 2020 14:13:11.347,14 Feb 2020 14:21:26.187,494.840
266,14 Feb 2020 15:44:36.967,14 Feb 2020 15:56:11.255,694.288
267,14 Feb 2020 17:20:11.474,14 Feb 2020 17:29:11.913,540.439
268,15 Feb 2020 03:12:04.762,15 Feb 2020 03:19:04.517,419.755
269,15 Feb 2020 04:44:22.449,15 Feb 2020 04:55:56.134,693.685
270,15 Feb 2020 06:18:44.462,15 Feb 2020 06:28:17.591,573.129
271,15 Feb 2020 13:55:33.213,15 Feb 2020 14:02:13.133,399.920
272,15 Feb 2020 15:26:03.129,15 Feb 2020 15:37:24.652,681.523
273,15 Feb 2020 17:00:42.562,15 Feb 2020 17:10:51.167,608.605
274,16 Feb 2020 02:54:41.911,16 Feb 2020 02:58:23.422,221.511
275,16 Feb 2020 04:25:43.521,16 Feb 2020 04:37:02.514,678.994
276,16 Feb 2020 05:59:47.203,16 Feb 2020 06:10:10.935,623.732
277,16 Feb 2020 13:38:21.655,16 Feb 2020 13:42:39.593,257.938
278,16 Feb 2020 15:07:38.322,16 Feb 2020 15:18:34.703,656.380
279,16 Feb 2020 16:41:28.177,16 Feb 2020 16:52:22.037,653.860
280,17 Feb 2020 04:07:09.190,17 Feb 2020 04:17:58.509,649.319
281,17 Feb 2020 05:40:54.132,17 Feb 2020 05:51:54.282,660.151
282,17 Feb 2020 07:16:41.928,17 Feb 2020 07:21:21.929,280.001
283,17 Feb 2020 14:49:22.854,17 Feb 2020 14:59:41.157,618.304
284,17 Feb 2020 16:22:25.513,17 Feb 2020 16:33:47.085,681.572
285,17 Feb 2020 18:00:46.206,17 Feb 2020 18:05:03.149,256.943
286,18 Feb 2020 03:48:40.914,18 Feb 2020 03:58:42.525,601.612
287,18 Feb 2020 05:22:04.601,18 Feb 2020 05:33:28.350,683.749
288,18 Feb 2020 06:57:12.319,18 Feb 2020 07:04:05.691,413.372
289,18 Feb 2020 14:31:17.509,18 Feb 2020 14:40:43.310,565.800
290,18 Feb 2020 16:03:33.100,18 Feb 2020 16:15:07.651,694.551
291,18 Feb 2020 17:40:15.077,18 Feb 2020 17:47:31.206,436.129
292,19 Feb 2020 03:30:21.485,19 Feb 2020 03:39:11.522,530.037
293,19 Feb 2020 05:03:18.400,19 Feb 2020 05:14:53.416,695.016
294,19 Feb 2020 06:38:00.747,19 Feb 2020 06:46:25.333,504.586
295,19 Feb 2020 14:13:23.887,19 Feb 2020 14:21:39.660,495.773
296,19 Feb 2020 15:44:50.105,19 Feb 2020 15:56:24.478,694.373
297,19 Feb 2020 17:20:25.310,19 Feb 2020 17:29:24.790,539.479
298,20 Feb 2020 03:12:17.342,20 Feb 2020 03:19:18.731,421.389
299,20 Feb 2020 04:44:35.616,20 Feb 2020 04:56:09.400,693.783
300,20 Feb 2020 06:18:57.865,20 Feb 2020 06:28:30.287,572.422
301,20 Feb 2020 13:55:45.539,20 Feb 2020 14:02:26.751,401.212
302,20 Feb 2020 15:26:16.167,20 Feb 2020 15:37:37.908,681.741
303,20 Feb 2020 17:00:56.203,20 Feb 2020 17:11:04.164,607.961
304,21 Feb 2020 02:54:53.484,21 Feb 2020 02:58:38.722,225.238
305,21 Feb 2020 04:25:56.641,21 Feb 2020 04:37:15.895,679.254
306,21 Feb 2020 06:00:00.547,21 Feb 2020 06:10:23.760,623.213
307,21 Feb 2020 13:38:33.518,21 Feb 2020 13:42:53.601,260.083
308,21 Feb 2020 15:07:51.254,21 Feb 2020 15:18:47.997,656.743
309,21 Feb 2020 16:41:41.668,21 Feb 2020 16:52:35.113,653.445
310,22 Feb 2020 04:07:22.247,22 Feb 2020 04:18:12.018,649.771
311,22 Feb 2020 05:41:07.429,22 Feb 2020 05:52:07.221,659.792
312,22 Feb 2020 07:16:55.911,22 Feb 2020 07:21:33.835,277.924
313,22 Feb 2020 14:49:35.673,22 Feb 2020 14:59:54.495,618.823
314,22 Feb 2020 16:22:38.878,22 Feb 2020 16:34:00.219,681.340
315,22 Feb 2020 18:01:01.191,22 Feb 2020 18:05:15.043,253.852
316,23 Feb 2020 03:48:53.885,23 Feb 2020 03:58:56.193,602.307
317,23 Feb 2020 05:22:17.858,23 Feb 2020 05:33:41.397,683.538
318,23 Feb 2020 06:57:25.943,23 Feb 2020 07:04:18.026,412.083
319,23 Feb 2020 14:31:30.204,23 Feb 2020 14:40:56.703,566.498
320,23 Feb 2020 16:03:46.351,23 Feb 2020 16:15:20.830,694.479
321,23 Feb 2020 17:40:29.223,23 Feb 2020 17:47:43.854,434.632
322,24 Feb 2020 03:30:34.324,24 Feb 2020 03:39:25.396,531.072
323,24 Feb 2020 05:03:31.615,24 Feb 2020 05:15:06.569,694.955
324,24 Feb 2020 06:38:14.231,24 Feb 2020 06:46:37.879,503.648
325,24 Feb 2020 14:13:36.432,24 Feb 2020 14:21:53.133,496.701
326,24 Feb 2020 15:45:03.250,24 Feb 2020 15:56:37.697,694.448
327,24 Feb 2020 17:20:39.150,24 Feb 2020 17:29:37.666,538.516
328,25 Feb 2020 03:12:29.924,25 Feb 2020 03:19:32.940,423.016
329,25 Feb 2020 04:44:48.788,25 Feb 2020 04:56:22.661,693.873
330,25 Feb 2020 06:19:11.267,25 Feb 2020 06:28:42.985,571.718
331,25 Feb 2020 13:55:57.871,25 Feb 2020 14:02:40.366,402.495
332,25 Feb 2020 15:26:29.207,25 Feb 2020 15:37:51.165,681.958
333,25 Feb 2020 17:01:09.848,25 Feb 2020 17:11:17.161,607.313
334,26 Feb 2020 02:55:05.097,26 Feb 2020 02:58:53.986,228.889
335,26 Feb 2020 04:26:09.763,26 Feb 2020 04:37:29.276,679.512
336,26 Feb 2020 06:00:13.892,26 Feb 2020 06:10:36.586,622.694
337,26 Feb 2020 13:38:45.390,26 Feb 2020 13:43:07.607,262.217
338,26 Feb 2020 15:08:04.188,26 Feb 2020 15:19:01.293,657.106
339,26 Feb 2020 16:41:55.164,26 Feb 2020 16:52:48.189,653.025
340,27 Feb 2020 04:07:35.308,27 Feb 2020 04:18:25.530,650.222
341,27 Feb 2020 05:41:20.728,27 Feb 2020 05:52:20.160,659.432
342,27 Feb 2020 07:17:09.901,27 Feb 2020 07:21:45.735,275.835
343,27 Feb 2020 14:49:48.491,27 Feb 2020 15:00:07.835,619.344
344,27 Feb 2020 16:22:52.247,27 Feb 2020 16:34:13.352,681.105
345,27 Feb 2020 18:01:16.204,27 Feb 2020 18:05:26.914,250.709
346,28 Feb 2020 03:49:06.861,28 Feb 2020 03:59:09.860,602.999
347,28 Feb 2020 05:22:31.112,28 Feb 2020 05:33:54.444,683.332
348,28 Feb 2020 06:57:39.571,28 Feb 2020 07:04:30.361,410.791
349,28 Feb 2020 14:31:42.904,28 Feb 2020 14:41:10.098,567.194
350,28 Feb 2020 16:03:59.606,28 Feb 2020 16:15:34.010,694.404
351,28 Feb 2020 17:40:43.377,28 Feb 2020 17:47:56.501,433.125
352,29 Feb 2020 03:30:47.169,29 Feb 2020 03:39:39.270,532.101
353,29 Feb 2020 05:03:44.833,29 Feb 2020 05:15:19.724,694.892
354,29 Feb 2020 06:38:27.718,29 Feb 2020 06:46:50.426,502.709
355,29 Feb 2020 14:13:48.980,29 Feb 2020 14:22:06.608,497.628
356,29 Feb 2020 15:45:16.397,29 Feb 2020 15:56:50.918,694.521
357,29 Feb 2020 17:20:52.996,29 Feb 2020 17:29:50.541,537.546
358,1 Mar 2020 03:12:42.514,1 Mar 2020 03:19:47.145,424.631
359,1 Mar 2020 04:45:01.963,1 Mar 2020 04:56:35.926,693.963
360,1 Mar 2020 06:19:24.672,1 Mar 2020 06:28:55.684,571.012
361,1 Mar 2020 13:56:10.208,1 Mar 2020 14:02:53.981,403.773
362,1 Mar 2020 15:26:42.250,1 Mar 2020 15:38:04.424,682.174
363,1 Mar 2020 17:01:23.500,1 Mar 2020 17:11:30.159,606.659
364,2 Mar 2020 02:55:16.744,2 Mar 2020 02:59:09.219,232.475
365,2 Mar 2020 04:26:22.888,2 Mar 2020 04:37:42.657,679.768
366,2 Mar 2020 06:00:27.240,2 Mar 2020 06:10:49.411,622.172
367,2 Mar 2020 13:38:57.272,2 Mar 2020 13:43:21.606,264.334
368,2 Mar 2020 15:08:17.124,2 Mar 2020 15:19:14.589,657.464
369,2 Mar 2020 16:42:08.662,2 Mar 2020 16:53:01.266,652.604
370,3 Mar 2020 04:07:48.371,3 Mar 2020 04:18:39.042,650.671
371,3 Mar 2020 05:41:34.029,3 Mar 2020 05:52:33.100,659.071
372,3 Mar 2020 07:17:23.901,3 Mar 2020 07:21:57.627,273.726
373,3 Mar 2020 14:50:01.316,3 Mar 2020 15:00:21.176,619.861
374,3 Mar 2020 16:23:05.619,3 Mar 2020 16:34:26.487,680.869
375,3 Mar 2020 18:01:31.243,3 Mar 2020 18:05:38.763,247.520
376,4 Mar 2020 03:49:19.844,4 Mar 2020 03:59:23.527,603.683
377,4 Mar 2020 05:22:44.372,4 Mar 2020 05:34:07.492,683.120
378,4 Mar 2020 06:57:53.202,4 Mar 2020 07:04:42.694,409.491
379,4 Mar 2020 14:31:55.605,4 Mar 2020 14:41:23.494,567.889
380,4 Mar 2020 16:04:12.863,4 Mar 2020 16:15:47.191,694.328
381,4 Mar 2020 17:40:57.536,4 Mar 2020 17:48:09.144,431.607
382,5 Mar 2020 03:31:00.015,5 Mar 2020 03:39:53.142,533.126
383,5 Mar 2020 05:03:58.052,5 Mar 2020 05:15:32.878,694.827
384,5 Mar 2020 06:38:41.207,5 Mar 2020 06:47:02.972,501.765
385,5 Mar 2020 14:14:01.531,5 Mar 2020 14:22:20.082,498.551
386,5 Mar 2020 15:45:29.547,5 Mar 2020 15:57:04.139,694.592
387,5 Mar 2020 17:21:06.844,5 Mar 2020 17:30:03.416,536.572
388,6 Mar 2020 03:12:55.109,6 Mar 2020 03:20:01.346,426.236
389,6 Mar 2020 04:45:15.138,6 Mar 2020 04:56:49.190,694.052
390,6 Mar 2020 06:19:38.079,6 Mar 2020 06:29:08.382,570.303
391,6 Mar 2020 13:56:22.548,6 Mar 2020 14:03:07.595,405.046
392,6 Mar 2020 15:26:55.294,6 Mar 2020 15:38:17.682,682.388
393,6 Mar 2020 17:01:37.153,6 Mar 2020 17:11:43.155,606.003
394,7 Mar 2020 02:55:28.421,7 Mar 2020 02:59:24.420,235.999
395,7 Mar 2020 04:26:36.014,7 Mar 2020 04:37:56.036,680.022
396,7 Mar 2020 06:00:40.587,7 Mar 2020 06:11:02.236,621.648
397,7 Mar 2020 13:39:09.162,7 Mar 2020 13:43:35.596,266.434
398,7 Mar 2020 15:08:30.062,7 Mar 2020 15:19:27.886,657.824
399,7 Mar 2020 16:42:22.162,7 Mar 2020 16:53:14.342,652.180
400,8 Mar 2020 04:08:01.435,8 Mar 2020 04:18:52.552,651.117
401,8 Mar 2020 05:41:47.330,8 Mar 2020 05:52:46.038,658.708
402,8 Mar 2020 07:17:37.909,8 Mar 2020 07:22:09.511,271.603
403,8 Mar 2020 14:50:14.141,8 Mar 2020 15:00:34.517,620.376
404,8 Mar 2020 16:23:18.991,8 Mar 2020 16:34:39.621,680.630
405,8 Mar 2020 18:01:46.308,8 Mar 2020 18:05:50.586,244.277
406,9 Mar 2020 03:49:32.823,9 Mar 2020 03:59:37.191,604.367
407,9 Mar 2020 05:22:57.632,9 Mar 2020 05:34:20.538,682.907
408,9 Mar 2020 06:58:06.834,9 Mar 2020 07:04:55.024,408.190
409,9 Mar 2020 14:32:08.306,9 Mar 2020 14:41:36.889,568.584
410,9 Mar 2020 16:04:26.121,9 Mar 2020 16:16:00.372,694.250
411,9 Mar 2020 17:41:11.702,9 Mar 2020 17:48:21.780,430.078
412,10 Mar 2020 03:31:12.865,10 Mar 2020 03:40:07.009,534.144
413,10 Mar 2020 05:04:11.271,10 Mar 2020 05:15:46.031,694.760
414,10 Mar 2020 06:38:54.696,10 Mar 2020 06:47:15.517,500.821
415,10 Mar 2020 14:14:14.083,10 Mar 2020 14:22:33.558,499.475
416,10 Mar 2020 15:45:42.698,10 Mar 2020 15:57:17.360,694.662
417,10 Mar 2020 17:21:20.697,10 Mar 2020 17:30:16.287,535.590
418,11 Mar 2020 03:13:07.712,11 Mar 2020 03:20:15.537,427.825
419,11 Mar 2020 04:45:28.315,11 Mar 2020 04:57:02.453,694.138
420,11 Mar 2020 06:19:51.485,11 Mar 2020 06:29:21.082,569.597
421,11 Mar 2020 13:56:34.890,11 Mar 2020 14:03:21.209,406.320
422,11 Mar 2020 15:27:08.340,11 Mar 2020 15:38:30.941,682.601
423,11 Mar 2020 17:01:50.808,11 Mar 2020 17:11:56.150,605.342
424,12 Mar 2020 02:55:40.134,12 Mar 2020 02:59:39.589,239.455
425,12 Mar 2020 04:26:49.142,12 Mar 2020 04:38:09.415,680.273
426,12 Mar 2020 06:00:53.936,12 Mar 2020 06:11:15.060,621.124
427,12 Mar 2020 13:39:21.059,12 Mar 2020 13:43:49.585,268.526
428,12 Mar 2020 15:08:43.002,12 Mar 2020 15:19:41.185,658.183
429,12 Mar 2020 16:42:35.666,12 Mar 2020 16:53:27.417,651.751
430,13 Mar 2020 04:08:14.502,13 Mar 2020 04:19:06.061,651.559
431,13 Mar 2020 05:42:00.633,13 Mar 2020 05:52:58.976,658.344
432,13 Mar 2020 07:17:51.922,13 Mar 2020 07:22:21.391,269.468
433,13 Mar 2020 14:50:26.970,13 Mar 2020 15:00:47.860,620.890
434,13 Mar 2020 16:23:32.368,13 Mar 2020 16:34:52.756,680.388
435,13 Mar 2020 18:02:01.405,13 Mar 2020 18:06:02.381,240.975
436,14 Mar 2020 03:49:45.807,14 Mar 2020 03:59:50.854,605.047
437,14 Mar 2020 05:23:10.894,14 Mar 2020 05:34:33.586,682.692
438,14 Mar 2020 06:58:20.469,14 Mar 2020 07:05:07.354,406.885
439,14 Mar 2020 14:32:21.010,14 Mar 2020 14:41:50.288,569.278
440,14 Mar 2020 16:04:39.383,14 Mar 2020 16:16:13.553,694.170
441,14 Mar 2020 17:41:25.877,14 Mar 2020 17:48:34.413,428.535
442,15 Mar 2020 03:31:25.720,15 Mar 2020 03:40:20.877,535.156
443,15 Mar 2020 05:04:24.494,15 Mar 2020 05:15:59.186,694.692
444,15 Mar 2020 06:39:08.188,15 Mar 2020 06:47:28.062,499.874
445,15 Mar 2020 14:14:26.638,15 Mar 2020 14:22:47.030,500.392
446,15 Mar 2020 15:45:55.852,15 Mar 2020 15:57:30.582,694.730
447,15 Mar 2020 17:21:34.555,15 Mar 2020 17:30:29.158,534.603
448,16 Mar 2020 03:13:20.327,16 Mar 2020 03:20:29.729,429.402
449,16 Mar 2020 04:45:41.495,16 Mar 2020 04:57:15.715,694.220
450,16 Mar 2020 06:20:04.894,16 Mar 2020 06:29:33.780,568.886
451,16 Mar 2020 13:56:47.236,16 Mar 2020 14:03:34.824,407.588
452,16 Mar 2020 15:27:21.389,16 Mar 2020 15:38:44.202,682.813
453,16 Mar 2020 17:02:04.463,16 Mar 2020 17:12:09.146,604.683
454,17 Mar 2020 02:55:51.876,17 Mar 2020 02:59:54.731,242.856
455,17 Mar 2020 04:27:02.273,17 Mar 2020 04:38:22.794,680.522
456,17 Mar 2020 06:01:07.287,17 Mar 2020 06:11:27.885,620.597
457,17 Mar 2020 13:39:32.966,17 Mar 2020 13:44:03.567,270.600
458,17 Mar 2020 15:08:55.945,17 Mar 2020 15:19:54.485,658.540
459,17 Mar 2020 16:42:49.172,17 Mar 2020 16:53:40.493,651.321
460,18 Mar 2020 04:08:27.571,18 Mar 2020 04:19:19.570,652.000
461,18 Mar 2020 05:42:13.938,18 Mar 2020 05:53:11.915,657.977
462,18 Mar 2020 07:18:05.947,18 Mar 2020 07:22:33.260,267.313
463,18 Mar 2020 14:50:39.804,18 Mar 2020 15:01:01.200,621.395
464,18 Mar 2020 16:23:45.750,18 Mar 2020 16:35:05.886,680.136
465,18 Mar 2020 18:02:16.530,18 Mar 2020 18:06:14.151,237.621
466,19 Mar 2020 03:49:58.788,19 Mar 2020 04:00:04.513,605.725
467,19 Mar 2020 05:23:24.161,19 Mar 2020 05:34:46.636,682.475
468,19 Mar 2020 06:58:34.111,19 Mar 2020 07:05:19.677,405.566
469,19 Mar 2020 14:32:33.711,19 Mar 2020 14:42:03.683,569.971
470,19 Mar 2020 16:04:52.646,19 Mar 2020 16:16:26.734,694.089
471,19 Mar 2020 17:41:40.061,19 Mar 2020 17:48:47.045,426.984
472,20 Mar 2020 03:31:38.573,20 Mar 2020 03:40:34.739,536.166
473,20 Mar 2020 05:04:37.716,20 Mar 2020 05:16:12.338,694.623
474,20 Mar 2020 06:39:21.679,20 Mar 2020 06:47:40.604,498.925
475,20 Mar 2020 14:14:39.199,20 Mar 2020 14:23:00.506,501.307
476,20 Mar 2020 15:46:09.007,20 Mar 2020 15:57:43.800,694.793
477,20 Mar 2020 17:21:48.415,20 Mar 2020 17:30:42.025,533.611
478,21 Mar 2020 03:13:32.938,21 Mar 2020 03:20:43.911,430.973
479,21 Mar 2020 04:45:54.678,21 Mar 2020 04:57:28.976,694.298
480,21 Mar 2020 06:20:18.302,21 Mar 2020 06:29:46.476,568.174
481,21 Mar 2020 13:56:59.586,21 Mar 2020 14:03:48.433,408.847
482,21 Mar 2020 15:27:34.439,21 Mar 2020 15:38:57.458,683.019
483,21 Mar 2020 17:02:18.125,21 Mar 2020 17:12:22.140,604.014
484,22 Mar 2020 02:56:03.647,22 Mar 2020 03:00:09.841,246.193
485,22 Mar 2020 04:27:15.404,22 Mar 2020 04:38:36.167,680.764
486,22 Mar 2020 06:01:20.638,22 Mar 2020 06:11:40.708,620.070
487,22 Mar 2020 13:39:44.879,22 Mar 2020 13:44:17.543,272.665
488,22 Mar 2020 15:09:08.888,22 Mar 2020 15:20:07.784,658.896
489,22 Mar 2020 16:43:02.681,22 Mar 2020 16:53:53.568,650.887
490,23 Mar 2020 04:08:40.641,23 Mar 2020 04:19:33.077,652.436
491,23 Mar 2020 05:42:27.242,23 Mar 2020 05:53:24.852,657.610
492,23 Mar 2020 07:18:19.975,23 Mar 2020 07:22:45.123,265.148
493,23 Mar 2020 14:50:52.635,23 Mar 2020 15:01:14.543,621.908
494,23 Mar 2020 16:23:59.130,23 Mar 2020 16:35:19.020,679.890
495,23 Mar 2020 18:02:31.687,23 Mar 2020 18:06:25.888,234.200
496,24 Mar 2020 03:50:11.776,24 Mar 2020 04:00:18.173,606.397
497,24 Mar 2020 05:23:37.425,24 Mar 2020 05:34:59.682,682.257
498,24 Mar 2020 06:58:47.749,24 Mar 2020 07:05:32.003,404.254
499,24 Mar 2020 14:32:46.418,24 Mar 2020 14:42:17.080,570.662
500,24 Mar 2020 16:05:05.911,24 Mar 2020 16:16:39.915,694.005
501,24 Mar 2020 17:41:54.248,24 Mar 2020 17:48:59.667,425.418
502,25 Mar 2020 03:31:51.435,25 Mar 2020 03:40:48.600,537.164
503,25 Mar 2020 05:04:50.939,25 Mar 2020 05:16:25.490,694.551
504,25 Mar 2020 06:39:35.171,25 Mar 2020 06:47:53.148,497.976
505,25 Mar 2020 14:14:51.757,25 Mar 2020 14:23:13.985,502.228
506,25 Mar 2020 15:46:22.165,25 Mar 2020 15:57:57.023,694.858
507,25 Mar 2020 17:22:02.281,25 Mar 2020 17:30:54.890,532.610
508,26 Mar 2020 03:13:45.561,26 Mar 2020 03:20:58.089,432.528
509,26 Mar 2020 04:46:07.860,26 Mar 2020 04:57:42.237,694.377
510,26 Mar 2020 06:20:31.712,26 Mar 2020 06:29:59.173,567.461
511,26 Mar 2020 13:57:11.936,26 Mar 2020 14:04:02.049,410.113
512,26 Mar 2020 15:27:47.491,26 Mar 2020 15:39:10.719,683.228
513,26 Mar 2020 17:02:31.791,26 Mar 2020 17:12:35.132,603.341
514,27 Mar 2020 02:56:15.450,27 Mar 2020 03:00:24.923,249.473
515,27 Mar 2020 04:27:28.538,27 Mar 2020 04:38:49.545,681.007
516,27 Mar 2020 06:01:33.990,27 Mar 2020 06:11:53.532,619.542
517,27 Mar 2020 13:39:56.798,27 Mar 2020 13:44:31.518,274.720
518,27 Mar 2020 15:09:21.834,27 Mar 2020 15:20:21.086,659.252
519,27 Mar 2020 16:43:16.193,27 Mar 2020 16:54:06.642,650.449
520,28 Mar 2020 04:08:53.715,28 Mar 2020 04:19:46.584,652.869
521,28 Mar 2020 05:42:40.548,28 Mar 2020 05:53:37.790,657.242
522,28 Mar 2020 07:18:34.012,28 Mar 2020 07:22:56.980,262.968
523,28 Mar 2020 14:51:05.469,28 Mar 2020 15:01:27.889,622.420
524,28 Mar 2020 16:24:12.513,28 Mar 2020 16:35:32.154,679.641
525,28 Mar 2020 18:02:46.880,28 Mar 2020 18:06:37.594,230.714
526,29 Mar 2020 03:50:24.768,29 Mar 2020 04:00:31.833,607.065
527,29 Mar 2020 05:23:50.690,29 Mar 2020 05:35:12.728,682.038
528,29 Mar 2020 06:59:01.389,29 Mar 2020 07:05:44.328,402.939
529,29 Mar 2020 14:32:59.127,29 Mar 2020 14:42:30.480,571.353
530,29 Mar 2020 16:05:19.179,29 Mar 2020 16:16:53.098,693.919
531,29 Mar 2020 17:42:08.444,29 Mar 2020 17:49:12.283,423.839
532,30 Mar 2020 03:32:04.301,30 Mar 2020 03:41:02.459,538.157
533,30 Mar 2020 05:05:04.165,30 Mar 2020 05:16:38.643,694.478
534,30 Mar 2020 06:39:48.666,30 Mar 2020 06:48:05.691,497.025
535,30 Mar 2020 14:15:04.317,30 Mar 2020 14:23:27.464,503.147
536,30 Mar 2020 15:46:35.329,30 Mar 2020 15:58:10.246,694.917
537,30 Mar 2020 17:22:16.151,30 Mar 2020 17:31:07.754,531.603
538,31 Mar 2020 03:13:58.190,31 Mar 2020 03:21:12.263,434.073
539,31 Mar 2020 04:46:21.044,31 Mar 2020 04:57:55.499,694.455
540,31 Mar 2020 06:20:45.124,31 Mar 2020 06:30:11.870,566.746
541,31 Mar 2020 13:57:24.288,31 Mar 2020 14:04:15.664,411.375
542,31 Mar 2020 15:28:00.546,31 Mar 2020 15:39:23.981,683.436
543,31 Mar 2020 17:02:45.460,31 Mar 2020 17:12:48.123,602.664
544,1 Apr 2020 02:56:27.278,1 Apr 2020 03:00:39.982,252.704
545,1 Apr 2020 04:27:41.673,1 Apr 2020 04:39:02.921,681.249
546,1 Apr 2020 06:01:47.343,1 Apr 2020 06:12:06.355,619.012
547,1 Apr 2020 13:40:08.727,1 Apr 2020 13:44:45.486,276.759
548,1 Apr 2020 15:09:34.781,1 Apr 2020 15:20:34.385,659.604
549,1 Apr 2020 16:43:29.707,1 Apr 2020 16:54:19.716,650.009
550,2 Apr 2020 04:09:06.790,2 Apr 2020 04:20:00.090,653.299
551,2 Apr 2020 05:42:53.855,2 Apr 2020 05:53:50.727,656.872
552,2 Apr 2020 07:18:48.058,2 Apr 2020 07:23:08.827,260.769
553,2 Apr 2020 14:51:18.300,2 Apr 2020 15:01:41.237,622.937
554,2 Apr 2020 16:24:25.894,2 Apr 2020 16:35:45.292,679.398
555,2 Apr 2020 18:03:02.106,2 Apr 2020 18:06:49.270,227.164
556,3 Apr 2020 03:50:37.766,3 Apr 2020 04:00:45.493,607.727
557,3 Apr 2020 05:24:03.956,3 Apr 2020 05:35:25.772,681.816
558,3 Apr 2020 06:59:15.027,3 Apr 2020 07:05:56.655,401.628
559,3 Apr 2020 14:33:11.838,3 Apr 2020 14:42:43.883,572.045
560,3 Apr 2020 16:05:32.446,3 Apr 2020 16:17:06.280,693.835
561,3 Apr 2020 17:42:22.646,3 Apr 2020 17:49:24.900,422.254
562,4 Apr 2020 03:32:17.172,4 Apr 2020 03:41:16.313,539.141
563,4 Apr 2020 05:05:17.392,4 Apr 2020 05:16:51.794,694.402
564,4 Apr 2020 06:40:02.161,4 Apr 2020 06:48:18.232,496.071
565,4 Apr 2020 14:15:16.879,4 Apr 2020 14:23:40.942,504.063
566,4 Apr 2020 15:46:48.485,4 Apr 2020 15:58:23.469,694.983
567,4 Apr 2020 17:22:30.024,4 Apr 2020 17:31:20.615,530.590
568,5 Apr 2020 03:14:10.824,5 Apr 2020 03:21:26.431,435.606
569,5 Apr 2020 04:46:34.228,5 Apr 2020 04:58:08.758,694.530
570,5 Apr 2020 06:20:58.535,5 Apr 2020 06:30:24.564,566.029
571,5 Apr 2020 13:57:36.643,5 Apr 2020 14:04:29.277,412.634
572,5 Apr 2020 15:28:13.601,5 Apr 2020 15:39:37.242,683.642
573,5 Apr 2020 17:02:59.130,5 Apr 2020 17:13:01.112,601.982
574,6 Apr 2020 02:56:39.132,6 Apr 2020 03:00:55.013,255.881
575,6 Apr 2020 04:27:54.808,6 Apr 2020 04:39:16.296,681.487
576,6 Apr 2020 06:02:00.695,6 Apr 2020 06:12:19.177,618.482
577,6 Apr 2020 13:40:20.660,6 Apr 2020 13:44:59.448,278.788
578,6 Apr 2020 15:09:47.729,6 Apr 2020 15:20:47.686,659.957
579,6 Apr 2020 16:43:43.222,6 Apr 2020 16:54:32.787,649.565
580,7 Apr 2020 04:09:19.866,7 Apr 2020 04:20:13.593,653.726
581,7 Apr 2020 05:43:07.161,7 Apr 2020 05:54:03.663,656.501
582,7 Apr 2020 07:19:02.109,7 Apr 2020 07:23:20.667,258.558
583,7 Apr 2020 14:51:31.135,7 Apr 2020 15:01:54.581,623.447
584,7 Apr 2020 16:24:39.280,7 Apr 2020 16:35:58.424,679.144
585,7 Apr 2020 18:03:17.367,7 Apr 2020 18:07:00.908,223.541
586,8 Apr 2020 03:50:50.761,8 Apr 2020 04:00:59.147,608.386
587,8 Apr 2020 05:24:17.218,8 Apr 2020 05:35:38.816,681.598
588,8 Apr 2020 06:59:28.668,8 Apr 2020 07:06:08.976,400.308
589,8 Apr 2020 14:33:24.549,8 Apr 2020 14:42:57.284,572.735
590,8 Apr 2020 16:05:45.716,8 Apr 2020 16:17:19.461,693.744
591,8 Apr 2020 17:42:36.854,8 Apr 2020 17:49:37.505,420.651
592,9 Apr 2020 03:32:30.046,9 Apr 2020 03:41:30.165,540.119
593,9 Apr 2020 05:05:30.619,9 Apr 2020 05:17:04.944,694.326
594,9 Apr 2020 06:40:15.655,9 Apr 2020 06:48:30.772,495.117
595,9 Apr 2020 14:15:29.441,9 Apr 2020 14:23:54.422,504.980
596,9 Apr 2020 15:47:01.648,9 Apr 2020 15:58:36.691,695.043
597,9 Apr 2020 17:22:43.905,9 Apr 2020 17:31:33.472,529.567
598,10 Apr 2020 03:14:23.467,10 Apr 2020 03:21:40.593,437.126
599,10 Apr 2020 04:46:47.413,10 Apr 2020 04:58:22.017,694.603
600,10 Apr 2020 06:21:11.943,10 Apr 2020 06:30:37.259,565.316
601,10 Apr 2020 13:57:48.999,10 Apr 2020 14:04:42.893,413.894
602,10 Apr 2020 15:28:26.658,10 Apr 2020 15:39:50.504,683.847
603,10 Apr 2020 17:03:12.805,10 Apr 2020 17:13:14.100,601.295
604,11 Apr 2020 02:56:51.015,11 Apr 2020 03:01:10.019,259.005
605,11 Apr 2020 04:28:07.947,11 Apr 2020 04:39:29.670,681.723
606,11 Apr 2020 06:02:14.050,11 Apr 2020 06:12:31.999,617.949
607,11 Apr 2020 13:40:32.600,11 Apr 2020 13:45:13.409,280.809
608,11 Apr 2020 15:10:00.679,11 Apr 2020 15:21:00.989,660.309
609,11 Apr 2020 16:43:56.742,11 Apr 2020 16:54:45.859,649.118
610,12 Apr 2020 04:09:32.946,12 Apr 2020 04:20:27.096,654.150
611,12 Apr 2020 05:43:20.470,12 Apr 2020 05:54:16.599,656.129
612,12 Apr 2020 07:19:16.169,12 Apr 2020 07:23:32.501,256.331
613,12 Apr 2020 14:51:43.973,12 Apr 2020 15:02:07.928,623.955
614,12 Apr 2020 16:24:52.670,12 Apr 2020 16:36:11.557,678.887
615,12 Apr 2020 18:03:32.667,12 Apr 2020 18:07:12.511,219.844
616,13 Apr 2020 03:51:03.760,13 Apr 2020 04:01:12.802,609.041
617,13 Apr 2020 05:24:30.486,13 Apr 2020 05:35:51.860,681.374
618,13 Apr 2020 06:59:42.313,13 Apr 2020 07:06:21.297,398.983
619,13 Apr 2020 14:33:37.263,13 Apr 2020 14:43:10.686,573.423
620,13 Apr 2020 16:05:58.990,13 Apr 2020 16:17:32.642,693.652
621,13 Apr 2020 17:42:51.070,13 Apr 2020 17:49:50.106,419.036
622,14 Apr 2020 03:32:42.922,14 Apr 2020 03:41:44.016,541.094
623,14 Apr 2020 05:05:43.847,14 Apr 2020 05:17:18.094,694.247
624,14 Apr 2020 06:40:29.151,14 Apr 2020 06:48:43.312,494.161
625,14 Apr 2020 14:15:42.006,14 Apr 2020 14:24:07.902,505.895
626,14 Apr 2020 15:47:14.812,14 Apr 2020 15:58:49.914,695.102
627,14 Apr 2020 17:22:57.787,14 Apr 2020 17:31:46.328,528.541
628,15 Apr 2020 03:14:36.118,15 Apr 2020 03:21:54.755,438.637
629,15 Apr 2020 04:47:00.601,15 Apr 2020 04:58:35.275,694.675
630,15 Apr 2020 06:21:25.354,15 Apr 2020 06:30:49.953,564.599
631,15 Apr 2020 13:58:01.357,15 Apr 2020 14:04:56.506,415.149
632,15 Apr 2020 15:28:39.716,15 Apr 2020 15:40:03.766,684.050
633,15 Apr 2020 17:03:26.480,15 Apr 2020 17:13:27.086,600.606
634,16 Apr 2020 02:57:02.919,16 Apr 2020 03:01:25.003,262.084
635,16 Apr 2020 04:28:21.086,16 Apr 2020 04:39:43.043,681.957
636,16 Apr 2020 06:02:27.406,16 Apr 2020 06:12:44.820,617.414
637,16 Apr 2020 13:40:44.547,16 Apr 2020 13:45:27.363,282.815
638,16 Apr 2020 15:10:13.631,16 Apr 2020 15:21:14.291,660.660
639,16 Apr 2020 16:44:10.262,16 Apr 2020 16:54:58.930,648.667
640,17 Apr 2020 04:09:46.025,17 Apr 2020 04:20:40.596,654.571
641,17 Apr 2020 05:43:33.778,17 Apr 2020 05:54:29.536,655.758
642,17 Apr 2020 07:19:30.236,17 Apr 2020 07:23:44.323,254.087
643,17 Apr 2020 14:51:56.811,17 Apr 2020 15:02:21.274,624.462
644,17 Apr 2020 16:25:06.060,17 Apr 2020 16:36:24.688,678.628
645,17 Apr 2020 18:03:48.001,17 Apr 2020 18:07:24.077,216.076
646,18 Apr 2020 03:51:16.760,18 Apr 2020 04:01:26.452,609.692
647,18 Apr 2020 05:24:43.753,18 Apr 2020 05:36:04.902,681.149
648,18 Apr 2020 06:59:55.958,18 Apr 2020 07:06:33.614,397.656
649,18 Apr 2020 14:33:49.977,18 Apr 2020 14:43:24.087,574.110
650,18 Apr 2020 16:06:12.264,18 Apr 2020 16:17:45.821,693.558
651,18 Apr 2020 17:43:05.292,18 Apr 2020 17:50:02.697,417.406
652,19 Apr 2020 03:32:55.796,19 Apr 2020 03:41:57.864,542.067
653,19 Apr 2020 05:05:57.075,19 Apr 2020 05:17:31.242,694.167
654,19 Apr 2020 06:40:42.646,19 Apr 2020 06:48:55.850,493.204
655,19 Apr 2020 14:15:54.571,19 Apr 2020 14:24:21.381,506.809
656,19 Apr 2020 15:47:27.981,19 Apr 2020 15:59:03.136,695.155
657,19 Apr 2020 17:23:11.668,19 Apr 2020 17:31:59.179,527.511
658,20 Apr 2020 03:14:48.771,20 Apr 2020 03:22:08.901,440.130
659,20 Apr 2020 04:47:13.787,20 Apr 2020 04:58:48.531,694.744
660,20 Apr 2020 06:21:38.764,20 Apr 2020 06:31:02.645,563.881
661,20 Apr 2020 13:58:13.717,20 Apr 2020 14:05:10.120,416.403
662,20 Apr 2020 15:28:52.775,20 Apr 2020 15:40:17.027,684.252
663,20 Apr 2020 17:03:40.159,20 Apr 2020 17:13:40.069,599.910
664,21 Apr 2020 02:57:14.849,21 Apr 2020 03:01:39.960,265.111
665,21 Apr 2020 04:28:34.225,21 Apr 2020 04:39:56.413,682.188
666,21 Apr 2020 06:02:40.761,21 Apr 2020 06:12:57.640,616.879
667,21 Apr 2020 13:40:56.498,21 Apr 2020 13:45:41.313,284.815
668,21 Apr 2020 15:10:26.582,21 Apr 2020 15:21:27.592,661.010
669,21 Apr 2020 16:44:23.784,21 Apr 2020 16:55:11.998,648.213
670,22 Apr 2020 04:09:59.107,22 Apr 2020 04:20:54.094,654.987
671,22 Apr 2020 05:43:47.085,22 Apr 2020 05:54:42.470,655.385
672,22 Apr 2020 07:19:44.308,22 Apr 2020 07:23:56.141,251.833
673,22 Apr 2020 14:52:09.651,22 Apr 2020 15:02:34.620,624.969
674,22 Apr 2020 16:25:19.452,22 Apr 2020 16:36:37.818,678.366
675,22 Apr 2020 18:04:03.382,22 Apr 2020 18:07:35.597,212.216
676,23 Apr 2020 03:51:29.762,23 Apr 2020 04:01:40.100,610.338
677,23 Apr 2020 05:24:57.021,23 Apr 2020 05:36:17.944,680.923
678,23 Apr 2020 07:00:09.602,23 Apr 2020 07:06:45.931,396.328
679,23 Apr 2020 14:34:02.691,23 Apr 2020 14:43:37.489,574.797
680,23 Apr 2020 16:06:25.539,23 Apr 2020 16:17:59.000,693.461
681,23 Apr 2020 17:43:19.522,23 Apr 2020 17:50:15.282,415.761
682,24 Apr 2020 03:33:08.679,24 Apr 2020 03:42:11.707,543.028
683,24 Apr 2020 05:06:10.304,24 Apr 2020 05:17:44.389,694.086
684,24 Apr 2020 06:40:56.140,24 Apr 2020 06:49:08.388,492.248
685,24 Apr 2020 14:16:07.138,24 Apr 2020 14:24:34.862,507.724
686,24 Apr 2020 15:47:41.148,24 Apr 2020 15:59:16.357,695.209
687,24 Apr 2020 17:23:25.558,24 Apr 2020 17:32:12.027,526.469
688,25 Apr 2020 03:15:01.430,25 Apr 2020 03:22:23.046,441.615
689,25 Apr 2020 04:47:26.976,25 Apr 2020 04:59:01.787,694.811
690,25 Apr 2020 06:21:52.176,25 Apr 2020 06:31:15.338,563.162
691,25 Apr 2020 13:58:26.079,25 Apr 2020 14:05:23.735,417.656
692,25 Apr 2020 15:29:05.836,25 Apr 2020 15:40:30.289,684.453
693,25 Apr 2020 17:03:53.839,25 Apr 2020 17:13:53.051,599.212
694,26 Apr 2020 02:57:26.803,26 Apr 2020 03:01:54.895,268.092
695,26 Apr 2020 04:28:47.367,26 Apr 2020 04:40:09.784,682.417
696,26 Apr 2020 06:02:54.110,26 Apr 2020 06:13:10.459,616.349
697,26 Apr 2020 13:41:08.456,26 Apr 2020 13:45:55.261,286.805
698,26 Apr 2020 15:10:39.536,26 Apr 2020 15:21:40.895,661.359
699,26 Apr 2020 16:44:37.310,26 Apr 2020 16:55:25.065,647.755
700,27 Apr 2020 04:10:12.190,27 Apr 2020 04:21:07.591,655.401
701,27 Apr 2020 05:44:00.390,27 Apr 2020 05:54:55.403,655.013
702,27 Apr 2020 07:19:58.389,27 Apr 2020 07:24:07.949,249.560
703,27 Apr 2020 14:52:22.492,27 Apr 2020 15:02:47.967,625.475
704,27 Apr 2020 16:25:32.846,27 Apr 2020 16:36:50.947,678.101
705,27 Apr 2020 18:04:18.806,27 Apr 2020 18:07:47.077,208.271
706,28 Apr 2020 03:51:42.767,28 Apr 2020 04:01:53.747,610.980
707,28 Apr 2020 05:25:10.290,28 Apr 2020 05:36:30.985,680.695
708,28 Apr 2020 07:00:23.249,28 Apr 2020 07:06:58.245,394.996
709,28 Apr 2020 14:34:15.408,28 Apr 2020 14:43:50.891,575.483
710,28 Apr 2020 16:06:38.817,28 Apr 2020 16:18:12.180,693.363
711,28 Apr 2020 17:43:33.758,28 Apr 2020 17:50:27.865,414.106
712,29 Apr 2020 03:33:21.564,29 Apr 2020 03:42:25.547,543.984
713,29 Apr 2020 05:06:23.534,29 Apr 2020 05:17:57.536,694.002
714,29 Apr 2020 06:41:09.636,29 Apr 2020 06:49:20.925,491.289
715,29 Apr 2020 14:16:19.706,29 Apr 2020 14:24:48.342,508.636
716,29 Apr 2020 15:47:54.317,29 Apr 2020 15:59:29.579,695.262
717,29 Apr 2020 17:23:39.451,29 Apr 2020 17:32:24.873,525.421
718,30 Apr 2020 03:15:14.094,30 Apr 2020 03:22:37.186,443.091
719,30 Apr 2020 04:47:40.165,30 Apr 2020 04:59:15.041,694.876
720,30 Apr 2020 06:22:05.588,30 Apr 2020 06:31:28.029,562.441
721,30 Apr 2020 13:58:38.443,30 Apr 2020 14:05:37.347,418.904
722,30 Apr 2020 15:29:18.897,30 Apr 2020 15:40:43.550,684.652
723,30 Apr 2020 17:04:07.523,30 Apr 2020 17:14:06.031,598.508
724,1 May 2020 02:57:38.776,1 May 2020 03:02:09.809,271.033
725,1 May 2020 04:29:00.509,1 May 2020 04:40:23.152,682.643
726,1 May 2020 06:03:07.464,1 May 2020 06:13:23.277,615.813
727,1 May 2020 13:41:20.418,1 May 2020 13:46:09.201,288.783
728,1 May 2020 15:10:52.490,1 May 2020 15:21:54.197,661.707
729,1 May 2020 16:44:50.836,1 May 2020 16:55:38.131,647.295
730,2 May 2020 04:10:25.274,2 May 2020 04:21:21.086,655.811
731,2 May 2020 05:44:13.697,2 May 2020 05:55:08.333,654.636
732,2 May 2020 07:20:12.477,2 May 2020 07:24:19.746,247.269
733,2 May 2020 14:52:35.335,2 May 2020 15:03:01.312,625.977
734,2 May 2020 16:25:46.242,2 May 2020 16:37:04.075,677.833
735,2 May 2020 18:04:34.272,2 May 2020 18:07:58.511,204.239
736,3 May 2020 03:51:55.768,3 May 2020 04:02:07.391,611.623
737,3 May 2020 05:25:23.561,3 May 2020 05:36:44.023,680.462
738,3 May 2020 07:00:36.895,3 May 2020 07:07:10.556,393.661
739,3 May 2020 14:34:28.125,3 May 2020 14:44:04.292,576.168
740,3 May 2020 16:06:52.094,3 May 2020 16:18:25.357,693.263
741,3 May 2020 17:43:48.000,3 May 2020 17:50:40.438,412.438
742,4 May 2020 03:33:34.450,4 May 2020 03:42:39.383,544.933
743,4 May 2020 05:06:36.762,4 May 2020 05:18:10.680,693.918
744,4 May 2020 06:41:23.131,4 May 2020 06:49:33.459,490.329
745,4 May 2020 14:16:32.274,4 May 2020 14:25:01.821,509.547
746,4 May 2020 15:48:07.485,4 May 2020 15:59:42.799,695.314
747,4 May 2020 17:23:53.347,4 May 2020 17:32:37.714,524.368
748,5 May 2020 03:15:26.763,5 May 2020 03:22:51.318,444.555
749,5 May 2020 04:47:53.353,5 May 2020 04:59:28.292,694.940
750,5 May 2020 06:22:18.998,5 May 2020 06:31:40.718,561.720
751,5 May 2020 13:58:50.808,5 May 2020 14:05:50.959,420.151
752,5 May 2020 15:29:31.959,5 May 2020 15:40:56.809,684.850
753,5 May 2020 17:04:21.209,5 May 2020 17:14:19.008,597.799
754,6 May 2020 02:57:50.772,6 May 2020 03:02:24.699,273.927
755,6 May 2020 04:29:13.651,6 May 2020 04:40:36.517,682.867
756,6 May 2020 06:03:20.817,6 May 2020 06:13:36.093,615.277
757,6 May 2020 13:41:32.387,6 May 2020 13:46:23.138,290.751
758,6 May 2020 15:11:05.444,6 May 2020 15:22:07.497,662.053
759,6 May 2020 16:45:04.363,6 May 2020 16:55:51.194,646.831
760,7 May 2020 04:10:38.359,7 May 2020 04:21:34.578,656.218
761,7 May 2020 05:44:27.004,7 May 2020 05:55:21.263,654.259
762,7 May 2020 07:20:26.570,7 May 2020 07:24:31.537,244.967
763,7 May 2020 14:52:48.177,7 May 2020 15:03:14.658,626.481
764,7 May 2020 16:25:59.641,7 May 2020 16:37:17.201,677.560
765,7 May 2020 18:04:49.791,7 May 2020 18:08:09.894,200.103
766,8 May 2020 03:52:08.776,8 May 2020 04:02:21.032,612.256
767,8 May 2020 05:25:36.829,8 May 2020 05:36:57.061,680.232
768,8 May 2020 07:00:50.541,8 May 2020 07:07:22.867,392.326
769,8 May 2020 14:34:40.842,8 May 2020 14:44:17.695,576.852
770,8 May 2020 16:07:05.373,8 May 2020 16:18:38.533,693.160
771,8 May 2020 17:44:02.250,8 May 2020 17:50:53.003,410.753
772,9 May 2020 03:33:47.341,9 May 2020 03:42:53.216,545.875
773,9 May 2020 05:06:49.992,9 May 2020 05:18:23.824,693.831
774,9 May 2020 06:41:36.625,9 May 2020 06:49:45.994,489.369
775,9 May 2020 14:16:44.843,9 May 2020 14:25:15.302,510.458
776,9 May 2020 15:48:20.655,9 May 2020 15:59:56.019,695.363
777,9 May 2020 17:24:07.247,9 May 2020 17:32:50.551,523.304
778,10 May 2020 03:15:39.438,10 May 2020 03:23:05.445,446.007
779,10 May 2020 04:48:06.543,10 May 2020 04:59:41.544,695.001
780,10 May 2020 06:22:32.409,10 May 2020 06:31:53.407,560.998
781,10 May 2020 13:59:03.175,10 May 2020 14:06:04.571,421.396
782,10 May 2020 15:29:45.023,10 May 2020 15:41:10.069,685.047
783,10 May 2020 17:04:34.897,10 May 2020 17:14:31.983,597.085
784,11 May 2020 02:58:02.789,11 May 2020 03:02:39.571,276.782
785,11 May 2020 04:29:26.794,11 May 2020 04:40:49.882,683.088
786,11 May 2020 06:03:34.170,11 May 2020 06:13:48.910,614.739
787,11 May 2020 13:41:44.358,11 May 2020 13:46:37.071,292.713
788,11 May 2020 15:11:18.401,11 May 2020 15:22:20.799,662.398
789,11 May 2020 16:45:17.889,11 May 2020 16:56:04.257,646.367
790,12 May 2020 04:10:51.446,12 May 2020 04:21:48.069,656.623
791,12 May 2020 05:44:40.312,12 May 2020 05:55:34.192,653.880
792,12 May 2020 07:20:40.674,12 May 2020 07:24:43.317,242.643
793,12 May 2020 14:53:01.021,12 May 2020 15:03:28.004,626.983
794,12 May 2020 16:26:13.035,12 May 2020 16:37:30.327,677.292
795,12 May 2020 18:05:05.357,12 May 2020 18:08:21.228,195.871
796,13 May 2020 03:52:21.785,13 May 2020 04:02:34.671,612.885
797,13 May 2020 05:25:50.098,13 May 2020 05:37:10.098,680.000
798,13 May 2020 07:01:04.189,13 May 2020 07:07:35.175,390.985
799,13 May 2020 14:34:53.561,13 May 2020 14:44:31.096,577.535
800,13 May 2020 16:07:18.654,13 May 2020 16:18:51.709,693.055
801,13 May 2020 17:44:16.506,13 May 2020 17:51:05.564,409.058
802,14 May 2020 03:34:00.233,14 May 2020 03:43:07.046,546.812
803,14 May 2020 05:07:03.222,14 May 2020 05:18:36.965,693.743
804,14 May 2020 06:41:50.119,14 May 2020 06:49:58.530,488.411
805,14 May 2020 14:16:57.414,14 May 2020 14:25:28.780,511.367
806,14 May 2020 15:48:33.826,14 May 2020 16:00:09.237,695.411
807,14 May 2020 17:24:21.149,14 May 2020 17:33:03.386,522.236
808,15 May 2020 03:15:52.117,15 May 2020 03:23:19.567,447.450
809,15 May 2020 04:48:19.732,15 May 2020 04:59:54.792,695.060
810,15 May 2020 06:22:45.819,15 May 2020 06:32:06.094,560.275
811,15 May 2020 13:59:15.543,15 May 2020 14:06:18.185,422.642
812,15 May 2020 15:29:58.086,15 May 2020 15:41:23.328,685.241
813,15 May 2020 17:04:48.586,15 May 2020 17:14:44.953,596.367
814,16 May 2020 02:58:14.823,16 May 2020 03:02:54.419,279.596
815,16 May 2020 04:29:39.937,16 May 2020 04:41:03.244,683.307
816,16 May 2020 06:03:47.521,16 May 2020 06:14:01.723,614.202
817,16 May 2020 13:41:56.341,16 May 2020 13:46:50.997,294.656
818,16 May 2020 15:11:31.356,16 May 2020 15:22:34.097,662.741
819,16 May 2020 16:45:31.419,16 May 2020 16:56:17.316,645.897
820,17 May 2020 04:11:04.532,17 May 2020 04:22:01.556,657.024
821,17 May 2020 05:44:53.619,17 May 2020 05:55:47.124,653.505
822,17 May 2020 07:20:54.784,17 May 2020 07:24:55.086,240.302
823,17 May 2020 14:53:13.863,17 May 2020 15:03:41.348,627.485
824,17 May 2020 16:26:26.433,17 May 2020 16:37:43.450,677.017
825,17 May 2020 18:05:20.978,17 May 2020 18:08:32.505,191.527
826,18 May 2020 03:52:34.795,18 May 2020 04:02:48.305,613.510
827,18 May 2020 05:26:03.362,18 May 2020 05:37:23.132,679.769
828,18 May 2020 07:01:17.835,18 May 2020 07:07:47.479,389.644
829,18 May 2020 14:35:06.279,18 May 2020 14:44:44.496,578.217
830,18 May 2020 16:07:31.934,18 May 2020 16:19:04.882,692.948
831,18 May 2020 17:44:30.768,18 May 2020 17:51:18.115,407.347
832,19 May 2020 03:34:13.128,19 May 2020 03:43:20.870,547.742
833,19 May 2020 05:07:16.451,19 May 2020 05:18:50.104,693.653
834,19 May 2020 06:42:03.611,19 May 2020 06:50:11.060,487.449
835,19 May 2020 14:17:09.983,19 May 2020 14:25:42.258,512.275
836,19 May 2020 15:48:46.996,19 May 2020 16:00:22.454,695.458
837,19 May 2020 17:24:35.054,19 May 2020 17:33:16.214,521.160
838,20 May 2020 03:16:04.801,20 May 2020 03:23:33.680,448.879
839,20 May 2020 04:48:32.921,20 May 2020 05:00:08.038,695.118
840,20 May 2020 06:22:59.227,20 May 2020 06:32:18.779,559.552
841,20 May 2020 13:59:27.911,20 May 2020 14:06:31.794,423.883
842,20 May 2020 15:30:11.150,20 May 2020 15:41:36.585,685.435
843,20 May 2020 17:05:02.278,20 May 2020 17:14:57.921,595.643
844,21 May 2020 02:58:26.878,21 May 2020 03:03:09.246,282.367
845,21 May 2020 04:29:53.081,21 May 2020 04:41:16.604,683.523
846,21 May 2020 06:04:00.872,21 May 2020 06:14:14.535,613.663
847,21 May 2020 13:42:08.323,21 May 2020 13:47:04.920,296.597
848,21 May 2020 15:11:44.313,21 May 2020 15:22:47.396,663.083
849,21 May 2020 16:45:44.951,21 May 2020 16:56:30.373,645.422
850,22 May 2020 04:11:17.620,22 May 2020 04:22:15.041,657.421
851,22 May 2020 05:45:06.924,22 May 2020 05:56:00.050,653.125
852,22 May 2020 07:21:08.900,22 May 2020 07:25:06.848,237.948
853,22 May 2020 14:53:26.706,22 May 2020 15:03:54.692,627.986
854,22 May 2020 16:26:39.833,22 May 2020 16:37:56.571,676.739
855,22 May 2020 18:05:36.661,22 May 2020 18:08:43.720,187.059
856,23 May 2020 03:52:47.807,23 May 2020 04:03:01.938,614.130
857,23 May 2020 05:26:16.629,23 May 2020 05:37:36.165,679.535
858,23 May 2020 07:01:31.481,23 May 2020 07:07:59.783,388.302
859,23 May 2020 14:35:18.998,23 May 2020 14:44:57.896,578.898
860,23 May 2020 16:07:45.216,23 May 2020 16:19:18.054,692.838
861,23 May 2020 17:44:45.037,23 May 2020 17:51:30.658,405.621
862,24 May 2020 03:34:26.025,24 May 2020 03:43:34.691,548.666
863,24 May 2020 05:07:29.680,24 May 2020 05:19:03.242,693.562
864,24 May 2020 06:42:17.103,24 May 2020 06:50:23.589,486.487
865,24 May 2020 14:17:22.555,24 May 2020 14:25:55.737,513.182
866,24 May 2020 15:49:00.168,24 May 2020 16:00:35.670,695.502
867,24 May 2020 17:24:48.963,24 May 2020 17:33:29.040,520.077
868,25 May 2020 03:16:17.490,25 May 2020 03:23:47.789,450.299
869,25 May 2020 04:48:46.110,25 May 2020 05:00:21.284,695.173
870,25 May 2020 06:23:12.635,25 May 2020 06:32:31.464,558.828
871,25 May 2020 13:59:40.282,25 May 2020 14:06:45.402,425.120
872,25 May 2020 15:30:24.215,25 May 2020 15:41:49.842,685.627
873,25 May 2020 17:05:15.972,25 May 2020 17:15:10.888,594.915
874,26 May 2020 02:58:38.951,26 May 2020 03:03:24.056,285.105
875,26 May 2020 04:30:06.226,26 May 2020 04:41:29.962,683.737
876,26 May 2020 06:04:14.224,26 May 2020 06:14:27.347,613.123
877,26 May 2020 13:42:20.311,26 May 2020 13:47:18.836,298.525
878,26 May 2020 15:11:57.270,26 May 2020 15:23:00.691,663.421
879,26 May 2020 16:45:58.485,26 May 2020 16:56:43.429,644.945
880,27 May 2020 04:11:30.708,27 May 2020 04:22:28.524,657.816
881,27 May 2020 05:45:20.231,27 May 2020 05:56:12.974,652.743
882,27 May 2020 07:21:23.027,27 May 2020 07:25:18.597,235.570
883,27 May 2020 14:53:39.553,27 May 2020 15:04:08.036,628.482
884,27 May 2020 16:26:53.234,27 May 2020 16:38:09.692,676.458
885,27 May 2020 18:05:52.403,27 May 2020 18:08:54.876,182.473
886,28 May 2020 03:53:00.824,28 May 2020 04:03:15.567,614.743
887,28 May 2020 05:26:29.896,28 May 2020 05:37:49.196,679.300
888,28 May 2020 07:01:45.129,28 May 2020 07:08:12.083,386.953
889,28 May 2020 14:35:31.718,28 May 2020 14:45:11.295,579.577
890,28 May 2020 16:07:58.498,28 May 2020 16:19:31.225,692.727
891,28 May 2020 17:44:59.312,28 May 2020 17:51:43.196,403.884
892,29 May 2020 03:34:38.924,29 May 2020 03:43:48.509,549.585
893,29 May 2020 05:07:42.909,29 May 2020 05:19:16.378,693.469
894,29 May 2020 06:42:30.595,29 May 2020 06:50:36.115,485.521
895,29 May 2020 14:17:35.127,29 May 2020 14:26:09.213,514.086
896,29 May 2020 15:49:13.340,29 May 2020 16:00:48.885,695.545
897,29 May 2020 17:25:02.874,29 May 2020 17:33:41.862,518.989
898,30 May 2020 03:16:30.182,30 May 2020 03:24:01.891,451.710
899,30 May 2020 04:48:59.299,30 May 2020 05:00:34.526,695.227
900,30 May 2020 06:23:26.043,30 May 2020 06:32:44.145,558.102
901,30 May 2020 13:59:52.654,30 May 2020 14:06:59.007,426.353
902,30 May 2020 15:30:37.280,30 May 2020 15:42:03.097,685.817
903,30 May 2020 17:05:29.665,30 May 2020 17:15:23.851,594.187
904,31 May 2020 02:58:51.039,31 May 2020 03:03:38.848,287.809
905,31 May 2020 04:30:19.369,31 May 2020 04:41:43.317,683.948
906,31 May 2020 06:04:27.574,31 May 2020 06:14:40.155,612.581
907,31 May 2020 13:42:32.304,31 May 2020 13:47:32.746,300.442
908,31 May 2020 15:12:10.227,31 May 2020 15:23:13.985,663.759
909,31 May 2020 16:46:12.018,31 May 2020 16:56:56.482,644.464
910,1 Jun 2020 04:11:43.796,1 Jun 2020 04:22:42.004,658.208
911,1 Jun 2020 05:45:33.535,1 Jun 2020 05:56:25.896,652.361
912,1 Jun 2020 07:21:37.161,1 Jun 2020 07:25:30.333,233.172
913,1 Jun 2020 14:53:52.397,1 Jun 2020 15:04:21.377,628.980
914,1 Jun 2020 16:27:06.635,1 Jun 2020 16:38:22.809,676.174
915,1 Jun 2020 18:06:08.210,1 Jun 2020 18:09:05.963,177.753
916,2 Jun 2020 03:53:13.837,2 Jun 2020 04:03:29.193,615.356
917,2 Jun 2020 05:26:43.161,2 Jun 2020 05:38:02.224,679.063
918,2 Jun 2020 07:01:58.776,2 Jun 2020 07:08:24.379,385.603
919,2 Jun 2020 14:35:44.437,2 Jun 2020 14:45:24.692,580.255
920,2 Jun 2020 16:08:11.780,2 Jun 2020 16:19:44.393,692.614
921,2 Jun 2020 17:45:13.592,2 Jun 2020 17:51:55.724,402.132
922,3 Jun 2020 03:34:51.824,3 Jun 2020 03:44:02.321,550.497
923,3 Jun 2020 05:07:56.136,3 Jun 2020 05:19:29.511,693.375
924,3 Jun 2020 06:42:44.084,3 Jun 2020 06:50:48.639,484.555
925,3 Jun 2020 14:17:47.698,3 Jun 2020 14:26:22.688,514.990
926,3 Jun 2020 15:49:26.507,3 Jun 2020 16:01:02.097,695.591
927,3 Jun 2020 17:25:16.787,3 Jun 2020 17:33:54.679,517.892
928,4 Jun 2020 03:16:42.878,4 Jun 2020 03:24:15.986,453.108
929,4 Jun 2020 04:49:12.487,4 Jun 2020 05:00:47.766,695.278
930,4 Jun 2020 06:23:39.448,4 Jun 2020 06:32:56.825,557.377
931,4 Jun 2020 14:00:05.026,4 Jun 2020 14:07:12.612,427.585
932,4 Jun 2020 15:30:50.345,4 Jun 2020 15:42:16.351,686.006
933,4 Jun 2020 17:05:43.361,4 Jun 2020 17:15:36.811,593.450
934,5 Jun 2020 02:59:03.146,5 Jun 2020 03:03:53.613,290.467
935,5 Jun 2020 04:30:32.513,5 Jun 2020 04:41:56.670,684.157
936,5 Jun 2020 06:04:40.923,5 Jun 2020 06:14:52.962,612.040
937,5 Jun 2020 13:42:44.301,5 Jun 2020 13:47:46.653,302.352
938,5 Jun 2020 15:12:23.184,5 Jun 2020 15:23:27.286,664.102
939,5 Jun 2020 16:46:25.553,5 Jun 2020 16:57:09.533,643.980
940,6 Jun 2020 04:11:56.885,6 Jun 2020 04:22:55.481,658.597
941,6 Jun 2020 05:45:46.839,6 Jun 2020 05:56:38.816,651.978
942,6 Jun 2020 07:21:51.302,6 Jun 2020 07:25:42.061,230.759
943,6 Jun 2020 14:54:05.241,6 Jun 2020 15:04:34.715,629.474
944,6 Jun 2020 16:27:20.038,6 Jun 2020 16:38:35.925,675.888
945,6 Jun 2020 18:06:24.094,6 Jun 2020 18:09:16.974,172.880
946,7 Jun 2020 03:53:26.852,7 Jun 2020 04:03:42.816,615.964
947,7 Jun 2020 05:26:56.427,7 Jun 2020 05:38:15.252,678.825
948,7 Jun 2020 07:02:12.423,7 Jun 2020 07:08:36.673,384.250
949,7 Jun 2020 14:35:57.157,7 Jun 2020 14:45:38.089,580.932
950,7 Jun 2020 16:08:25.063,7 Jun 2020 16:19:57.561,692.498
951,7 Jun 2020 17:45:27.881,7 Jun 2020 17:52:08.245,400.364
952,8 Jun 2020 03:35:04.727,8 Jun 2020 03:44:16.131,551.404
953,8 Jun 2020 05:08:09.364,8 Jun 2020 05:19:42.644,693.279
954,8 Jun 2020 06:42:57.578,8 Jun 2020 06:51:01.163,483.584
955,8 Jun 2020 14:18:00.269,8 Jun 2020 14:26:36.163,515.893
956,8 Jun 2020 15:49:39.684,8 Jun 2020 16:01:15.311,695.628
957,8 Jun 2020 17:25:30.702,8 Jun 2020 17:34:07.493,516.790
958,9 Jun 2020 03:16:55.576,9 Jun 2020 03:24:30.081,454.505
959,9 Jun 2020 04:49:25.676,9 Jun 2020 05:01:01.005,695.329
960,9 Jun 2020 06:23:52.851,9 Jun 2020 06:33:09.504,556.652
961,9 Jun 2020 14:00:17.401,9 Jun 2020 14:07:26.209,428.808
962,9 Jun 2020 15:31:03.411,9 Jun 2020 15:42:29.604,686.193
963,9 Jun 2020 17:05:57.060,9 Jun 2020 17:15:49.771,592.711
964,10 Jun 2020 02:59:15.268,10 Jun 2020 03:04:08.371,293.104
965,10 Jun 2020 04:30:45.657,10 Jun 2020 04:42:10.021,684.364
966,10 Jun 2020 06:04:54.272,10 Jun 2020 06:15:05.768,611.496
967,10 Jun 2020 13:42:56.307,10 Jun 2020 13:48:00.553,304.246
968,10 Jun 2020 15:12:36.142,10 Jun 2020 15:23:40.580,664.438
969,10 Jun 2020 16:46:39.089,10 Jun 2020 16:57:22.582,643.493
970,11 Jun 2020 04:12:09.973,11 Jun 2020 04:23:08.956,658.983
971,11 Jun 2020 05:46:00.142,11 Jun 2020 05:56:51.734,651.593
972,11 Jun 2020 07:22:05.456,11 Jun 2020 07:25:53.773,228.317
973,11 Jun 2020 14:54:18.086,11 Jun 2020 15:04:48.054,629.968
974,11 Jun 2020 16:27:33.441,11 Jun 2020 16:38:49.039,675.599
975,11 Jun 2020 18:06:40.050,11 Jun 2020 18:09:27.906,167.856
976,12 Jun 2020 03:53:39.866,12 Jun 2020 04:03:56.435,616.569
977,12 Jun 2020 05:27:09.691,12 Jun 2020 05:38:28.276,678.585
978,12 Jun 2020 07:02:26.070,12 Jun 2020 07:08:48.962,382.891
