Data/ERNST_i97_a500_r00_t120_stiff/ERNST_i98_a700_r00 Access.csv

"Access","Start Time (UTCG)","Stop Time (UTCG)","Duration (sec)"
1,1 Jan 2020 04:44:06.820,1 Jan 2020 04:53:36.946,570.126
2,1 Jan 2020 06:21:16.846,1 Jan 2020 06:32:42.155,685.309
3,1 Jan 2020 08:00:39.610,1 Jan 2020 08:06:52.380,372.770
4,1 Jan 2020 15:53:25.429,1 Jan 2020 16:04:02.025,636.596
5,1 Jan 2020 17:30:55.365,1 Jan 2020 17:41:54.858,659.493
6,2 Jan 2020 05:26:26.638,2 Jan 2020 05:37:43.852,677.214
7,2 Jan 2020 07:04:32.631,2 Jan 2020 07:14:42.118,609.487
8,2 Jan 2020 15:00:49.217,2 Jan 2020 15:08:10.218,441.001
9,2 Jan 2020 16:35:39.002,2 Jan 2020 16:47:12.340,693.338
10,2 Jan 2020 18:15:23.040,2 Jan 2020 18:24:02.496,519.456
11,3 Jan 2020 04:32:27.293,3 Jan 2020 04:41:03.003,515.710
12,3 Jan 2020 06:09:16.014,3 Jan 2020 06:20:49.710,693.696
13,3 Jan 2020 07:48:16.964,3 Jan 2020 07:55:41.895,444.932
14,3 Jan 2020 15:41:47.729,3 Jan 2020 15:51:55.267,607.537
15,3 Jan 2020 17:18:43.954,3 Jan 2020 17:30:02.104,678.150
16,4 Jan 2020 05:14:34.023,4 Jan 2020 05:25:32.147,658.124
17,4 Jan 2020 06:52:25.987,4 Jan 2020 07:03:04.151,638.164
18,4 Jan 2020 14:49:39.344,4 Jan 2020 14:55:47.106,367.762
19,4 Jan 2020 16:23:46.793,4 Jan 2020 16:35:11.419,684.626
20,4 Jan 2020 18:02:49.618,4 Jan 2020 18:12:22.610,572.992
21,5 Jan 2020 04:20:55.290,5 Jan 2020 04:28:18.809,443.519
22,5 Jan 2020 05:57:16.730,5 Jan 2020 06:08:53.328,696.598
23,5 Jan 2020 07:36:00.199,5 Jan 2020 07:44:22.987,502.788
24,5 Jan 2020 15:30:14.549,5 Jan 2020 15:39:46.450,571.901
25,5 Jan 2020 17:06:37.115,5 Jan 2020 17:18:07.206,690.091
26,5 Jan 2020 18:48:52.984,5 Jan 2020 18:53:19.449,266.464
27,6 Jan 2020 05:02:43.981,6 Jan 2020 05:13:15.393,631.412
28,6 Jan 2020 06:40:21.116,6 Jan 2020 06:51:21.978,660.862
29,6 Jan 2020 08:20:43.833,6 Jan 2020 08:24:00.066,196.232
30,6 Jan 2020 14:38:43.402,6 Jan 2020 14:43:12.620,269.217
31,6 Jan 2020 16:11:58.518,6 Jan 2020 16:23:08.972,670.454
32,6 Jan 2020 17:50:23.769,6 Jan 2020 18:00:37.789,614.020
33,7 Jan 2020 04:09:36.537,7 Jan 2020 04:15:18.521,341.984
34,7 Jan 2020 05:45:19.072,7 Jan 2020 05:56:52.925,693.853
35,7 Jan 2020 07:23:47.296,7 Jan 2020 07:32:57.686,550.390
36,7 Jan 2020 15:18:46.365,7 Jan 2020 15:27:35.135,528.770
37,7 Jan 2020 16:54:34.564,7 Jan 2020 17:06:10.445,695.881
38,7 Jan 2020 18:35:38.198,7 Jan 2020 18:42:13.664,395.465
39,8 Jan 2020 04:50:57.134,8 Jan 2020 05:00:52.915,595.782
40,8 Jan 2020 06:28:17.856,8 Jan 2020 06:39:35.764,677.908
41,8 Jan 2020 08:07:57.035,8 Jan 2020 08:13:17.769,320.734
42,8 Jan 2020 14:28:32.777,8 Jan 2020 14:29:55.372,82.596
43,8 Jan 2020 16:00:14.216,8 Jan 2020 16:11:04.954,650.738
44,8 Jan 2020 17:38:04.126,8 Jan 2020 17:48:49.319,645.193
45,9 Jan 2020 03:58:55.400,9 Jan 2020 04:01:37.648,162.248
46,9 Jan 2020 05:33:23.175,9 Jan 2020 05:44:48.355,685.180
47,9 Jan 2020 07:11:37.249,9 Jan 2020 07:21:27.043,589.794
48,9 Jan 2020 15:07:23.948,9 Jan 2020 15:15:20.554,476.605
49,9 Jan 2020 16:42:36.094,9 Jan 2020 16:54:11.996,695.902
50,9 Jan 2020 18:22:46.742,9 Jan 2020 18:30:47.450,480.708
51,10 Jan 2020 04:39:14.466,10 Jan 2020 04:48:23.665,549.200
52,10 Jan 2020 06:16:16.141,10 Jan 2020 06:27:45.606,689.466
53,10 Jan 2020 07:55:29.076,10 Jan 2020 08:02:14.082,405.005
54,10 Jan 2020 15:48:34.024,10 Jan 2020 15:58:59.263,625.239
55,10 Jan 2020 17:25:49.853,10 Jan 2020 17:36:57.983,668.131
56,11 Jan 2020 05:21:29.260,11 Jan 2020 05:32:39.377,670.117
57,11 Jan 2020 06:59:29.456,11 Jan 2020 07:09:51.655,622.198
58,11 Jan 2020 14:56:08.707,11 Jan 2020 15:03:01.331,412.624
59,11 Jan 2020 16:30:41.600,11 Jan 2020 16:42:11.966,690.366
60,11 Jan 2020 18:10:07.889,11 Jan 2020 18:19:11.423,543.534
61,12 Jan 2020 04:27:37.667,12 Jan 2020 04:35:45.865,488.198
62,12 Jan 2020 06:04:15.947,12 Jan 2020 06:15:51.524,695.577
63,12 Jan 2020 07:43:09.233,12 Jan 2020 07:50:59.727,470.494
64,12 Jan 2020 15:36:58.167,12 Jan 2020 15:46:51.688,593.522
65,12 Jan 2020 17:13:40.393,12 Jan 2020 17:25:04.297,683.903
66,12 Jan 2020 18:57:09.235,12 Jan 2020 18:59:16.244,127.009
67,13 Jan 2020 05:09:37.657,13 Jan 2020 05:20:25.633,647.976
68,13 Jan 2020 06:47:23.576,13 Jan 2020 06:58:11.911,648.335
69,13 Jan 2020 14:45:03.623,13 Jan 2020 14:50:34.495,330.871
70,13 Jan 2020 16:18:51.028,13 Jan 2020 16:30:10.411,679.383
71,13 Jan 2020 17:57:37.839,13 Jan 2020 18:07:29.273,591.434
72,14 Jan 2020 04:16:10.132,14 Jan 2020 04:22:56.031,405.899
73,14 Jan 2020 05:52:17.329,14 Jan 2020 06:03:53.479,696.150
74,14 Jan 2020 07:30:54.242,14 Jan 2020 07:39:37.985,523.743
75,14 Jan 2020 15:25:26.993,14 Jan 2020 15:34:41.899,554.905
76,14 Jan 2020 17:01:35.368,14 Jan 2020 17:13:08.596,693.228
77,14 Jan 2020 18:43:17.317,14 Jan 2020 18:48:45.832,328.515
78,15 Jan 2020 04:57:48.856,15 Jan 2020 05:08:06.589,617.733
79,15 Jan 2020 06:35:19.392,15 Jan 2020 06:46:28.034,668.642
80,15 Jan 2020 08:15:20.218,15 Jan 2020 08:19:36.524,256.306
81,15 Jan 2020 14:34:17.816,15 Jan 2020 14:37:50.940,213.124
82,15 Jan 2020 16:07:04.397,15 Jan 2020 16:18:07.318,662.921
83,15 Jan 2020 17:45:14.705,15 Jan 2020 17:55:42.810,628.105
84,16 Jan 2020 04:05:01.081,16 Jan 2020 04:09:44.816,283.735
85,16 Jan 2020 05:40:20.379,16 Jan 2020 05:51:51.364,690.985
86,16 Jan 2020 07:18:42.624,16 Jan 2020 07:28:10.360,567.737
87,16 Jan 2020 15:14:01.092,16 Jan 2020 15:22:29.337,508.245
88,16 Jan 2020 16:49:34.539,16 Jan 2020 17:01:11.115,696.576
89,16 Jan 2020 18:30:14.641,16 Jan 2020 18:37:29.159,434.518
90,17 Jan 2020 04:46:03.604,17 Jan 2020 04:55:41.446,577.842
91,17 Jan 2020 06:23:16.779,17 Jan 2020 06:34:40.169,683.390
92,17 Jan 2020 08:02:43.851,17 Jan 2020 08:08:42.736,358.885
93,17 Jan 2020 15:55:21.789,17 Jan 2020 16:06:02.622,640.833
94,17 Jan 2020 17:32:57.385,17 Jan 2020 17:43:53.069,655.683
95,18 Jan 2020 05:28:25.281,18 Jan 2020 05:39:44.992,679.711
96,18 Jan 2020 07:06:33.572,18 Jan 2020 07:16:37.682,604.109
97,18 Jan 2020 15:02:41.444,18 Jan 2020 15:10:13.049,451.605
98,18 Jan 2020 16:37:37.738,18 Jan 2020 16:49:11.998,694.260
99,18 Jan 2020 18:17:29.125,18 Jan 2020 18:25:58.184,509.059
100,19 Jan 2020 04:34:23.117,19 Jan 2020 04:43:08.913,525.797
101,19 Jan 2020 06:11:15.697,19 Jan 2020 06:22:48.379,692.682
102,19 Jan 2020 07:50:19.889,19 Jan 2020 07:57:33.983,434.094
103,19 Jan 2020 15:43:43.370,19 Jan 2020 15:53:56.175,612.806
104,19 Jan 2020 17:20:45.175,19 Jan 2020 17:32:00.703,675.529
105,20 Jan 2020 05:16:32.283,20 Jan 2020 05:27:34.078,661.795
106,20 Jan 2020 06:54:26.613,20 Jan 2020 07:05:00.442,633.829
107,20 Jan 2020 14:51:29.912,20 Jan 2020 14:57:51.173,381.261
108,20 Jan 2020 16:25:44.880,20 Jan 2020 16:37:11.327,686.447
109,20 Jan 2020 18:04:54.253,20 Jan 2020 18:14:19.303,565.051
110,21 Jan 2020 04:22:49.600,21 Jan 2020 04:30:26.684,457.084
111,21 Jan 2020 05:59:16.152,21 Jan 2020 06:10:52.653,696.501
112,21 Jan 2020 07:38:02.324,21 Jan 2020 07:46:16.291,493.967
113,21 Jan 2020 15:32:09.415,21 Jan 2020 15:41:47.726,578.311
114,21 Jan 2020 17:08:37.598,21 Jan 2020 17:20:06.144,688.546
115,21 Jan 2020 18:51:09.669,21 Jan 2020 18:55:05.777,236.108
116,22 Jan 2020 05:04:41.777,22 Jan 2020 05:15:18.202,636.426
117,22 Jan 2020 06:42:21.460,22 Jan 2020 06:53:18.951,657.491
118,22 Jan 2020 08:22:55.910,22 Jan 2020 08:25:41.903,165.994
119,22 Jan 2020 14:40:30.952,22 Jan 2020 14:45:19.279,288.327
120,22 Jan 2020 16:13:55.947,22 Jan 2020 16:25:09.137,673.190
121,22 Jan 2020 17:52:27.257,22 Jan 2020 18:02:35.195,607.938
122,23 Jan 2020 04:11:27.930,23 Jan 2020 04:17:29.794,361.864
123,23 Jan 2020 05:47:18.213,23 Jan 2020 05:58:52.927,694.714
124,23 Jan 2020 07:25:48.870,23 Jan 2020 07:34:51.965,543.095
125,23 Jan 2020 15:20:40.350,23 Jan 2020 15:29:36.867,536.517
126,23 Jan 2020 16:56:34.351,23 Jan 2020 17:08:09.676,695.324
127,23 Jan 2020 18:37:48.145,23 Jan 2020 18:44:06.231,378.086
128,24 Jan 2020 04:52:54.345,24 Jan 2020 05:02:56.730,602.386
129,24 Jan 2020 06:30:17.943,24 Jan 2020 06:41:33.401,675.458
130,24 Jan 2020 08:10:02.599,24 Jan 2020 08:15:06.544,303.945
131,24 Jan 2020 14:30:04.055,24 Jan 2020 14:32:17.879,133.824
132,24 Jan 2020 16:02:10.976,24 Jan 2020 16:13:05.388,654.411
133,24 Jan 2020 17:40:06.650,24 Jan 2020 17:50:47.266,640.615
134,25 Jan 2020 04:00:35.457,25 Jan 2020 04:04:00.760,205.303
135,25 Jan 2020 05:35:22.014,25 Jan 2020 05:46:49.064,687.050
136,25 Jan 2020 07:13:38.399,25 Jan 2020 07:23:22.156,583.757
137,25 Jan 2020 15:09:16.903,25 Jan 2020 15:17:22.902,485.999
138,25 Jan 2020 16:44:35.212,25 Jan 2020 16:56:11.500,696.289
139,25 Jan 2020 18:24:53.920,25 Jan 2020 18:32:42.310,468.390
140,26 Jan 2020 04:41:10.890,26 Jan 2020 04:50:28.707,557.816
141,26 Jan 2020 06:18:15.968,26 Jan 2020 06:29:43.895,687.927
142,26 Jan 2020 07:57:32.669,26 Jan 2020 08:04:05.247,392.578
143,26 Jan 2020 15:50:30.089,26 Jan 2020 16:00:59.983,629.895
144,26 Jan 2020 17:27:51.529,26 Jan 2020 17:38:56.370,664.841
145,27 Jan 2020 05:23:27.750,27 Jan 2020 05:34:40.840,673.090
146,27 Jan 2020 07:01:30.260,27 Jan 2020 07:11:47.528,617.268
147,27 Jan 2020 14:58:00.325,27 Jan 2020 15:05:04.594,424.269
148,27 Jan 2020 16:32:40.064,27 Jan 2020 16:44:11.729,691.666
149,27 Jan 2020 18:12:13.316,27 Jan 2020 18:21:07.577,534.262
150,28 Jan 2020 04:29:32.946,28 Jan 2020 04:37:52.503,499.556
151,28 Jan 2020 06:06:15.525,28 Jan 2020 06:17:50.462,694.937
152,28 Jan 2020 07:45:11.783,28 Jan 2020 07:52:52.362,460.580
153,28 Jan 2020 15:38:53.491,28 Jan 2020 15:48:52.742,599.250
154,28 Jan 2020 17:15:41.300,28 Jan 2020 17:27:03.047,681.747
155,29 Jan 2020 05:11:35.735,29 Jan 2020 05:22:27.917,652.182
156,29 Jan 2020 06:49:24.081,29 Jan 2020 07:00:08.486,644.405
157,29 Jan 2020 14:46:53.212,29 Jan 2020 14:52:39.368,346.156
158,29 Jan 2020 16:20:48.840,29 Jan 2020 16:32:10.423,681.584
159,29 Jan 2020 17:59:41.967,29 Jan 2020 18:09:26.290,584.323
160,30 Jan 2020 04:18:03.498,30 Jan 2020 04:25:05.050,421.553
161,30 Jan 2020 05:54:16.636,30 Jan 2020 06:05:53.085,696.450
162,30 Jan 2020 07:32:56.124,30 Jan 2020 07:41:31.716,515.592
163,30 Jan 2020 15:27:21.509,30 Jan 2020 15:36:43.352,561.842
164,30 Jan 2020 17:03:35.557,30 Jan 2020 17:15:07.663,692.106
165,30 Jan 2020 18:45:30.141,30 Jan 2020 18:50:35.805,305.664
166,31 Jan 2020 04:59:46.426,31 Jan 2020 05:10:09.803,623.377
167,31 Jan 2020 06:37:19.626,31 Jan 2020 06:48:25.287,665.661
168,31 Jan 2020 08:17:28.245,31 Jan 2020 08:21:22.592,234.347
169,31 Jan 2020 14:36:02.789,31 Jan 2020 14:40:00.001,237.213
170,31 Jan 2020 16:09:01.551,31 Jan 2020 16:20:07.593,666.042
171,31 Jan 2020 17:47:17.775,31 Jan 2020 17:57:40.456,622.681
172,1 Feb 2020 04:06:50.074,1 Feb 2020 04:11:58.708,308.634
173,1 Feb 2020 05:42:19.401,1 Feb 2020 05:53:51.656,692.255
174,1 Feb 2020 07:20:44.013,1 Feb 2020 07:30:05.000,560.987
175,1 Feb 2020 15:15:54.676,1 Feb 2020 15:24:31.305,516.629
176,1 Feb 2020 16:51:34.046,1 Feb 2020 17:03:10.464,696.417
177,1 Feb 2020 18:32:23.234,1 Feb 2020 18:39:22.879,419.646
178,2 Feb 2020 04:48:00.515,2 Feb 2020 04:57:45.745,585.229
179,2 Feb 2020 06:25:16.757,2 Feb 2020 06:36:38.077,681.319
180,2 Feb 2020 08:04:48.405,2 Feb 2020 08:10:32.699,344.294
181,2 Feb 2020 15:57:18.264,2 Feb 2020 16:08:03.167,644.902
182,2 Feb 2020 17:34:59.545,2 Feb 2020 17:45:51.212,651.667
183,3 Feb 2020 03:56:51.512,3 Feb 2020 03:57:34.484,42.972
184,3 Feb 2020 05:30:23.981,3 Feb 2020 05:41:46.008,682.027
185,3 Feb 2020 07:08:34.575,3 Feb 2020 07:18:33.117,598.543
186,3 Feb 2020 15:04:33.893,3 Feb 2020 15:12:15.728,461.835
187,3 Feb 2020 16:39:36.583,3 Feb 2020 16:51:11.608,695.025
188,3 Feb 2020 18:19:35.497,3 Feb 2020 18:27:53.660,498.163
189,4 Feb 2020 04:36:19.121,4 Feb 2020 04:45:14.560,535.439
190,4 Feb 2020 06:13:15.422,4 Feb 2020 06:24:46.936,691.514
191,4 Feb 2020 07:52:22.988,4 Feb 2020 07:59:25.829,422.841
192,4 Feb 2020 15:45:39.134,4 Feb 2020 15:55:57.028,617.894
193,4 Feb 2020 17:22:46.523,4 Feb 2020 17:33:59.251,672.727
194,5 Feb 2020 05:18:30.610,5 Feb 2020 05:29:35.873,665.263
195,5 Feb 2020 06:56:27.289,5 Feb 2020 07:06:56.611,629.323
196,5 Feb 2020 14:53:20.812,5 Feb 2020 14:59:54.979,394.167
197,5 Feb 2020 16:27:43.070,5 Feb 2020 16:39:11.194,688.124
198,5 Feb 2020 18:06:59.096,5 Feb 2020 18:16:15.859,556.762
199,6 Feb 2020 04:24:44.217,6 Feb 2020 04:32:34.181,469.964
200,6 Feb 2020 06:01:15.619,6 Feb 2020 06:12:51.868,696.249
201,6 Feb 2020 07:40:04.569,6 Feb 2020 07:48:09.415,484.846
202,6 Feb 2020 15:34:04.412,6 Feb 2020 15:43:48.936,584.523
203,6 Feb 2020 17:10:38.201,6 Feb 2020 17:22:05.031,686.830
204,6 Feb 2020 18:53:29.040,6 Feb 2020 18:56:49.504,200.464
205,7 Feb 2020 05:06:39.656,7 Feb 2020 05:17:20.858,641.202
206,7 Feb 2020 06:44:21.850,7 Feb 2020 06:55:15.812,653.963
207,7 Feb 2020 08:25:11.546,7 Feb 2020 08:27:20.114,128.569
208,7 Feb 2020 14:42:19.203,7 Feb 2020 14:47:25.309,306.105
209,7 Feb 2020 16:15:53.486,7 Feb 2020 16:27:09.258,675.772
210,7 Feb 2020 17:54:30.921,7 Feb 2020 18:04:32.496,601.576
211,8 Feb 2020 04:13:19.996,8 Feb 2020 04:19:40.317,380.321
212,8 Feb 2020 05:49:17.406,8 Feb 2020 06:00:52.816,695.410
213,8 Feb 2020 07:27:50.530,8 Feb 2020 07:36:46.088,535.558
214,8 Feb 2020 15:22:34.494,8 Feb 2020 15:31:38.516,544.022
215,8 Feb 2020 16:58:34.253,8 Feb 2020 17:10:08.866,694.613
216,8 Feb 2020 18:39:58.756,8 Feb 2020 18:45:58.215,359.459
217,9 Feb 2020 04:54:51.662,9 Feb 2020 05:05:00.375,608.713
218,9 Feb 2020 06:32:18.069,9 Feb 2020 06:43:30.927,672.858
219,9 Feb 2020 08:12:08.702,9 Feb 2020 08:16:54.715,286.013
220,9 Feb 2020 14:31:42.852,9 Feb 2020 14:34:32.940,170.088
221,9 Feb 2020 16:04:07.851,9 Feb 2020 16:15:05.771,657.921
222,9 Feb 2020 17:42:09.326,9 Feb 2020 17:52:45.136,635.810
223,10 Feb 2020 04:02:19.581,10 Feb 2020 04:06:19.724,240.143
224,10 Feb 2020 05:37:20.907,10 Feb 2020 05:48:49.650,688.743
225,10 Feb 2020 07:15:39.614,10 Feb 2020 07:25:17.136,577.522
226,10 Feb 2020 15:11:10.046,10 Feb 2020 15:19:25.134,495.088
227,10 Feb 2020 16:46:34.443,10 Feb 2020 16:58:10.961,696.518
228,10 Feb 2020 18:27:01.462,10 Feb 2020 18:34:36.890,455.428
229,11 Feb 2020 04:43:07.462,11 Feb 2020 04:52:33.524,566.062
230,11 Feb 2020 06:20:15.843,11 Feb 2020 06:31:42.072,686.229
231,11 Feb 2020 07:59:36.503,11 Feb 2020 08:05:56.112,379.609
232,11 Feb 2020 15:52:26.273,11 Feb 2020 16:03:00.654,634.381
233,11 Feb 2020 17:29:53.341,11 Feb 2020 17:40:54.687,661.346
234,12 Feb 2020 05:25:26.302,12 Feb 2020 05:36:42.169,675.867
235,12 Feb 2020 07:03:31.119,12 Feb 2020 07:13:43.276,612.157
236,12 Feb 2020 14:59:52.202,12 Feb 2020 15:07:07.672,435.470
237,12 Feb 2020 16:34:38.633,12 Feb 2020 16:46:11.447,692.814
238,12 Feb 2020 18:14:18.996,12 Feb 2020 18:23:03.554,524.558
239,13 Feb 2020 04:31:28.452,13 Feb 2020 04:39:58.838,510.386
240,13 Feb 2020 06:08:15.144,13 Feb 2020 06:19:49.297,694.153
241,13 Feb 2020 07:47:14.479,13 Feb 2020 07:54:44.785,450.306
242,13 Feb 2020 15:40:48.942,13 Feb 2020 15:50:53.734,604.792
243,13 Feb 2020 17:17:42.331,13 Feb 2020 17:29:01.739,679.407
244,14 Feb 2020 05:13:33.887,14 Feb 2020 05:24:30.061,656.174
245,14 Feb 2020 06:51:24.635,14 Feb 2020 07:02:04.949,640.314
246,14 Feb 2020 14:48:43.221,14 Feb 2020 14:54:43.880,360.660
247,14 Feb 2020 16:22:46.761,14 Feb 2020 16:34:10.397,683.636
248,14 Feb 2020 18:01:46.292,14 Feb 2020 18:11:23.185,576.893
249,15 Feb 2020 04:19:57.270,15 Feb 2020 04:27:13.586,436.316
250,15 Feb 2020 05:56:15.994,15 Feb 2020 06:07:52.578,696.584
251,15 Feb 2020 07:34:58.101,15 Feb 2020 07:43:25.280,507.180
252,15 Feb 2020 15:29:16.162,15 Feb 2020 15:38:44.727,568.565
253,15 Feb 2020 17:05:35.864,15 Feb 2020 17:17:06.678,690.814
254,15 Feb 2020 18:47:44.204,15 Feb 2020 18:52:24.629,280.425
255,16 Feb 2020 05:01:44.088,16 Feb 2020 05:12:12.852,628.764
256,16 Feb 2020 06:39:19.906,16 Feb 2020 06:50:22.426,662.520
257,16 Feb 2020 08:19:37.474,16 Feb 2020 08:23:07.386,209.912
258,16 Feb 2020 14:37:48.989,16 Feb 2020 14:42:07.905,258.916
259,16 Feb 2020 16:10:58.816,16 Feb 2020 16:22:07.821,669.005
260,16 Feb 2020 17:49:21.008,16 Feb 2020 17:59:38.016,617.007
261,17 Feb 2020 04:08:40.174,17 Feb 2020 04:14:11.399,331.225
262,17 Feb 2020 05:44:18.475,17 Feb 2020 05:55:51.833,693.357
263,17 Feb 2020 07:22:45.472,17 Feb 2020 07:31:59.496,554.025
264,17 Feb 2020 15:17:48.430,17 Feb 2020 15:26:33.172,524.742
265,17 Feb 2020 16:53:33.665,17 Feb 2020 17:05:09.767,696.102
266,17 Feb 2020 18:34:32.321,17 Feb 2020 18:41:16.190,403.869
267,18 Feb 2020 04:49:57.549,18 Feb 2020 04:59:49.849,592.300
268,18 Feb 2020 06:27:16.783,18 Feb 2020 06:38:35.879,679.096
269,18 Feb 2020 08:06:53.324,18 Feb 2020 08:12:22.230,328.906
270,18 Feb 2020 14:27:57.527,18 Feb 2020 14:28:31.717,34.190
271,18 Feb 2020 15:59:14.856,18 Feb 2020 16:10:03.671,648.815
272,18 Feb 2020 17:37:01.849,18 Feb 2020 17:47:49.277,647.428
273,19 Feb 2020 03:58:07.295,19 Feb 2020 04:00:22.007,134.712
274,19 Feb 2020 05:32:22.737,19 Feb 2020 05:43:46.898,684.161
275,19 Feb 2020 07:10:35.635,19 Feb 2020 07:20:28.429,592.794
276,19 Feb 2020 15:06:26.553,19 Feb 2020 15:14:18.265,471.712
277,19 Feb 2020 16:41:35.537,19 Feb 2020 16:53:11.180,695.643
278,19 Feb 2020 18:21:42.173,19 Feb 2020 18:29:48.910,486.738
279,20 Feb 2020 04:38:15.294,20 Feb 2020 04:47:19.960,544.665
280,20 Feb 2020 06:15:15.190,20 Feb 2020 06:26:45.386,690.196
281,20 Feb 2020 07:54:26.275,20 Feb 2020 08:01:17.416,411.141
282,20 Feb 2020 15:47:35.020,20 Feb 2020 15:57:57.823,622.803
283,20 Feb 2020 17:24:48.001,20 Feb 2020 17:35:57.731,669.730
284,21 Feb 2020 05:20:29.003,21 Feb 2020 05:31:37.531,668.528
285,21 Feb 2020 06:58:28.016,21 Feb 2020 07:08:52.663,624.647
286,21 Feb 2020 14:55:12.018,21 Feb 2020 15:01:58.549,406.531
287,21 Feb 2020 16:29:41.373,21 Feb 2020 16:41:11.021,689.648
288,21 Feb 2020 18:09:04.168,21 Feb 2020 18:18:12.263,548.095
289,22 Feb 2020 04:26:39.114,22 Feb 2020 04:34:41.314,482.200
290,22 Feb 2020 06:03:15.133,22 Feb 2020 06:14:50.974,695.841
291,22 Feb 2020 07:42:06.929,22 Feb 2020 07:50:02.347,475.418
292,22 Feb 2020 15:35:59.543,22 Feb 2020 15:45:50.080,590.537
293,22 Feb 2020 17:12:38.930,22 Feb 2020 17:24:03.862,684.932
294,22 Feb 2020 18:55:52.892,22 Feb 2020 18:58:28.837,155.944
295,23 Feb 2020 05:08:37.616,23 Feb 2020 05:19:23.364,645.748
296,23 Feb 2020 06:46:22.286,23 Feb 2020 06:57:12.556,650.270
297,23 Feb 2020 08:27:35.846,23 Feb 2020 08:28:49.592,73.746
298,23 Feb 2020 14:44:08.048,23 Feb 2020 14:49:30.818,322.770
299,23 Feb 2020 16:17:51.132,23 Feb 2020 16:29:09.334,678.202
300,23 Feb 2020 17:56:34.765,23 Feb 2020 18:06:29.694,594.929
301,24 Feb 2020 04:15:12.633,24 Feb 2020 04:21:50.186,397.553
302,24 Feb 2020 05:51:16.646,24 Feb 2020 06:02:52.587,695.942
303,24 Feb 2020 07:29:52.274,24 Feb 2020 07:38:40.060,527.786
304,24 Feb 2020 15:24:28.793,24 Feb 2020 15:33:40.083,551.289
305,24 Feb 2020 17:00:34.266,24 Feb 2020 17:12:08.003,693.737
306,24 Feb 2020 18:42:10.138,24 Feb 2020 18:47:49.514,339.377
307,25 Feb 2020 04:56:49.081,25 Feb 2020 05:07:03.842,614.761
308,25 Feb 2020 06:34:18.240,25 Feb 2020 06:45:28.343,670.103
309,25 Feb 2020 08:14:15.443,25 Feb 2020 08:18:42.177,266.733
310,25 Feb 2020 14:33:25.011,25 Feb 2020 14:36:44.709,199.698
311,25 Feb 2020 16:06:04.838,25 Feb 2020 16:17:06.112,661.274
312,25 Feb 2020 17:44:12.156,25 Feb 2020 17:54:42.921,630.765
313,26 Feb 2020 04:04:06.168,26 Feb 2020 04:08:36.140,269.972
314,26 Feb 2020 05:39:19.850,26 Feb 2020 05:50:50.122,690.273
315,26 Feb 2020 07:17:40.895,26 Feb 2020 07:27:11.983,571.088
316,26 Feb 2020 15:13:03.375,26 Feb 2020 15:21:27.251,503.876
317,26 Feb 2020 16:48:33.784,26 Feb 2020 17:00:10.380,696.596
318,26 Feb 2020 18:29:09.395,26 Feb 2020 18:36:31.158,441.763
319,27 Feb 2020 04:45:04.175,27 Feb 2020 04:54:38.132,573.957
320,27 Feb 2020 06:22:15.760,27 Feb 2020 06:33:40.145,684.386
321,27 Feb 2020 08:01:40.604,27 Feb 2020 08:07:46.642,366.039
322,27 Feb 2020 15:54:22.576,27 Feb 2020 16:05:01.276,638.700
323,27 Feb 2020 17:31:55.291,27 Feb 2020 17:42:52.940,657.648
324,28 Feb 2020 05:27:24.915,28 Feb 2020 05:38:43.379,678.464
325,28 Feb 2020 07:05:32.036,28 Feb 2020 07:15:38.905,606.868
326,28 Feb 2020 15:01:44.319,28 Feb 2020 15:09:10.581,446.262
327,28 Feb 2020 16:36:37.315,28 Feb 2020 16:48:11.128,693.813
328,28 Feb 2020 18:16:24.945,28 Feb 2020 18:24:59.352,514.407
329,29 Feb 2020 04:33:24.167,29 Feb 2020 04:42:04.889,520.722
330,29 Feb 2020 06:10:14.807,29 Feb 2020 06:21:48.019,693.212
331,29 Feb 2020 07:49:17.330,29 Feb 2020 07:56:36.989,439.659
332,29 Feb 2020 15:42:44.523,29 Feb 2020 15:52:54.670,610.148
333,29 Feb 2020 17:19:43.489,29 Feb 2020 17:31:00.376,676.886
334,1 Mar 2020 05:15:32.111,1 Mar 2020 05:26:32.064,659.953
335,1 Mar 2020 06:53:25.239,1 Mar 2020 07:04:01.297,636.057
336,1 Mar 2020 14:50:33.616,1 Mar 2020 14:56:48.091,374.475
337,1 Mar 2020 16:24:44.790,1 Mar 2020 16:36:10.331,685.541
338,1 Mar 2020 18:03:50.821,1 Mar 2020 18:13:19.953,569.132
339,2 Mar 2020 04:21:51.405,2 Mar 2020 04:29:21.682,450.277
340,2 Mar 2020 05:58:15.395,2 Mar 2020 06:09:51.962,696.566
341,2 Mar 2020 07:37:00.183,2 Mar 2020 07:45:18.669,498.486
342,2 Mar 2020 15:31:10.962,2 Mar 2020 15:40:46.038,575.075
343,2 Mar 2020 17:07:36.292,2 Mar 2020 17:19:05.642,689.350
344,2 Mar 2020 18:49:59.869,2 Mar 2020 18:54:11.944,252.076
345,3 Mar 2020 05:03:41.839,3 Mar 2020 05:14:15.744,633.905
346,3 Mar 2020 06:41:20.231,3 Mar 2020 06:52:19.456,659.225
347,3 Mar 2020 08:21:48.395,3 Mar 2020 08:24:50.425,182.031
348,3 Mar 2020 14:39:36.140,3 Mar 2020 14:44:14.928,278.788
349,3 Mar 2020 16:12:56.188,3 Mar 2020 16:24:08.011,671.823
350,3 Mar 2020 17:51:24.414,3 Mar 2020 18:01:35.480,611.066
351,4 Mar 2020 04:10:31.169,4 Mar 2020 04:16:23.115,351.946
352,4 Mar 2020 05:46:17.594,4 Mar 2020 05:57:51.892,694.298
353,4 Mar 2020 07:24:47.012,4 Mar 2020 07:33:53.848,546.836
354,4 Mar 2020 15:19:42.343,4 Mar 2020 15:28:34.945,532.602
355,4 Mar 2020 16:55:33.398,4 Mar 2020 17:07:09.025,695.627
356,4 Mar 2020 18:36:41.964,4 Mar 2020 18:43:09.031,387.067
357,5 Mar 2020 04:51:54.703,5 Mar 2020 05:01:53.767,599.065
358,5 Mar 2020 06:29:16.848,5 Mar 2020 06:40:33.571,676.722
359,5 Mar 2020 08:08:58.662,5 Mar 2020 08:14:11.275,312.613
360,5 Mar 2020 14:29:16.093,5 Mar 2020 14:31:06.898,110.804
361,5 Mar 2020 16:01:11.562,5 Mar 2020 16:12:04.124,652.561
362,5 Mar 2020 17:39:04.300,5 Mar 2020 17:49:47.274,642.974
363,6 Mar 2020 03:59:43.874,6 Mar 2020 04:02:48.644,184.770
364,6 Mar 2020 05:34:21.550,6 Mar 2020 05:45:47.673,686.122
365,6 Mar 2020 07:12:36.759,6 Mar 2020 07:22:23.610,586.851
366,6 Mar 2020 15:08:19.412,6 Mar 2020 15:16:20.677,481.264
367,6 Mar 2020 16:43:34.602,6 Mar 2020 16:55:10.710,696.108
368,6 Mar 2020 18:23:49.178,6 Mar 2020 18:31:43.913,474.735
369,7 Mar 2020 04:40:11.642,7 Mar 2020 04:49:25.124,553.482
370,7 Mar 2020 06:17:15.005,7 Mar 2020 06:28:43.731,688.727
371,7 Mar 2020 07:56:29.767,7 Mar 2020 08:03:08.731,398.964
372,7 Mar 2020 15:49:31.028,7 Mar 2020 15:59:58.575,627.547
373,7 Mar 2020 17:26:49.612,7 Mar 2020 17:37:56.154,666.542
374,8 Mar 2020 05:22:27.462,8 Mar 2020 05:33:39.065,671.603
375,8 Mar 2020 07:00:28.798,8 Mar 2020 07:10:48.595,619.797
376,8 Mar 2020 14:57:03.509,8 Mar 2020 15:04:01.910,418.401
377,8 Mar 2020 16:31:39.781,8 Mar 2020 16:43:10.808,691.026
378,8 Mar 2020 18:11:09.475,8 Mar 2020 18:20:08.508,539.032
379,9 Mar 2020 04:28:34.269,9 Mar 2020 04:36:48.116,493.847
380,9 Mar 2020 06:05:14.689,9 Mar 2020 06:16:49.969,695.280
381,9 Mar 2020 07:44:09.426,9 Mar 2020 07:51:55.085,465.659
382,9 Mar 2020 15:37:54.807,9 Mar 2020 15:47:51.165,596.359
383,9 Mar 2020 17:14:39.777,9 Mar 2020 17:26:02.644,682.867
384,9 Mar 2020 18:58:27.380,9 Mar 2020 18:59:57.620,90.240
385,10 Mar 2020 05:10:35.656,10 Mar 2020 05:21:25.727,650.071
386,10 Mar 2020 06:48:22.772,10 Mar 2020 06:59:09.196,646.424
387,10 Mar 2020 14:45:57.405,10 Mar 2020 14:51:35.886,338.481
388,10 Mar 2020 16:19:48.892,10 Mar 2020 16:31:09.376,680.484
389,10 Mar 2020 17:58:38.796,10 Mar 2020 18:08:26.776,587.981
390,11 Mar 2020 04:17:05.768,11 Mar 2020 04:23:59.483,413.715
391,11 Mar 2020 05:53:15.937,11 Mar 2020 06:04:52.254,696.317
392,11 Mar 2020 07:31:54.112,11 Mar 2020 07:40:33.876,519.765
393,11 Mar 2020 15:26:23.233,11 Mar 2020 15:35:41.574,558.340
394,11 Mar 2020 17:02:34.402,11 Mar 2020 17:14:07.099,692.697
395,11 Mar 2020 18:44:22.430,11 Mar 2020 18:49:39.990,317.559
396,12 Mar 2020 04:58:46.602,12 Mar 2020 05:09:07.142,620.540
397,12 Mar 2020 06:36:18.456,12 Mar 2020 06:47:25.649,667.193
398,12 Mar 2020 08:16:22.995,12 Mar 2020 08:20:28.762,245.767
399,12 Mar 2020 14:35:09.215,12 Mar 2020 14:38:54.505,225.290
400,12 Mar 2020 16:08:01.939,12 Mar 2020 16:19:06.411,664.473
401,12 Mar 2020 17:46:15.147,12 Mar 2020 17:56:40.621,625.475
402,13 Mar 2020 04:05:54.464,13 Mar 2020 04:10:50.769,296.305
403,13 Mar 2020 05:41:18.845,13 Mar 2020 05:52:50.476,691.630
404,13 Mar 2020 07:19:42.252,13 Mar 2020 07:29:06.694,564.442
405,13 Mar 2020 15:14:56.873,13 Mar 2020 15:23:29.268,512.395
406,13 Mar 2020 16:50:33.234,13 Mar 2020 17:02:09.755,696.521
407,13 Mar 2020 18:31:17.757,13 Mar 2020 18:38:25.079,427.322
408,14 Mar 2020 04:47:01.022,14 Mar 2020 04:56:42.538,581.516
409,14 Mar 2020 06:24:15.718,14 Mar 2020 06:35:38.108,682.390
410,14 Mar 2020 08:03:45.005,14 Mar 2020 08:09:36.802,351.797
411,14 Mar 2020 15:56:18.997,14 Mar 2020 16:07:01.850,642.853
412,14 Mar 2020 17:33:57.383,14 Mar 2020 17:44:51.120,653.737
413,15 Mar 2020 05:29:23.588,15 Mar 2020 05:40:44.459,680.870
414,15 Mar 2020 07:07:33.013,15 Mar 2020 07:17:34.405,601.392
415,15 Mar 2020 15:03:36.664,15 Mar 2020 15:11:13.335,456.671
416,15 Mar 2020 16:38:36.108,15 Mar 2020 16:50:10.764,694.655
417,15 Mar 2020 18:18:31.170,15 Mar 2020 18:26:54.946,503.777
418,16 Mar 2020 04:35:20.081,16 Mar 2020 04:44:10.673,530.592
419,16 Mar 2020 06:12:14.512,16 Mar 2020 06:23:46.638,692.126
420,16 Mar 2020 07:51:20.349,16 Mar 2020 07:58:28.958,428.609
421,16 Mar 2020 15:44:40.229,16 Mar 2020 15:54:55.554,615.325
422,16 Mar 2020 17:21:44.776,16 Mar 2020 17:32:58.955,674.180
423,17 Mar 2020 05:17:30.406,17 Mar 2020 05:28:33.933,663.527
424,17 Mar 2020 06:55:25.895,17 Mar 2020 07:05:57.528,631.633
425,17 Mar 2020 14:52:24.360,17 Mar 2020 14:58:52.020,387.660
426,17 Mar 2020 16:26:42.931,17 Mar 2020 16:38:10.222,687.291
427,17 Mar 2020 18:05:55.562,17 Mar 2020 18:15:16.585,561.023
428,18 Mar 2020 04:23:45.867,18 Mar 2020 04:31:29.374,463.508
429,18 Mar 2020 06:00:14.843,18 Mar 2020 06:11:51.236,696.393
430,18 Mar 2020 07:39:02.374,18 Mar 2020 07:47:11.887,489.513
431,18 Mar 2020 15:33:05.897,18 Mar 2020 15:42:47.282,581.385
432,18 Mar 2020 17:09:36.837,18 Mar 2020 17:21:04.561,687.723
433,18 Mar 2020 18:52:17.725,18 Mar 2020 18:55:57.148,219.423
434,19 Mar 2020 05:05:39.678,19 Mar 2020 05:16:18.479,638.802
435,19 Mar 2020 06:43:20.603,19 Mar 2020 06:54:16.377,655.774
436,19 Mar 2020 08:24:01.969,19 Mar 2020 08:26:30.741,148.772
437,19 Mar 2020 14:41:24.062,19 Mar 2020 14:46:21.259,297.197
438,19 Mar 2020 16:14:53.675,19 Mar 2020 16:26:08.156,674.481
439,19 Mar 2020 17:53:27.990,19 Mar 2020 18:03:32.841,604.851
440,20 Mar 2020 04:12:22.902,20 Mar 2020 04:18:34.012,371.110
441,20 Mar 2020 05:48:16.769,20 Mar 2020 05:59:51.843,695.074
442,20 Mar 2020 07:26:48.639,20 Mar 2020 07:35:48.050,539.411
443,20 Mar 2020 15:21:36.414,20 Mar 2020 15:30:36.639,540.225
444,20 Mar 2020 16:57:33.245,20 Mar 2020 17:09:08.243,694.998
445,20 Mar 2020 18:38:52.222,20 Mar 2020 18:45:01.330,369.108
446,21 Mar 2020 04:53:51.966,21 Mar 2020 05:03:57.503,605.537
447,21 Mar 2020 06:31:16.957,21 Mar 2020 06:42:31.150,674.193
448,21 Mar 2020 08:11:04.492,21 Mar 2020 08:15:59.762,295.270
449,21 Mar 2020 14:30:52.051,21 Mar 2020 14:33:24.768,152.717
450,21 Mar 2020 16:03:08.383,21 Mar 2020 16:14:04.537,656.153
451,21 Mar 2020 17:41:06.902,21 Mar 2020 17:51:45.186,638.285
452,22 Mar 2020 04:01:26.221,22 Mar 2020 04:05:09.437,223.216
453,22 Mar 2020 05:36:20.419,22 Mar 2020 05:47:48.324,687.905
454,22 Mar 2020 07:14:37.948,22 Mar 2020 07:24:18.660,580.712
455,22 Mar 2020 15:10:12.470,22 Mar 2020 15:18:22.966,490.496
456,22 Mar 2020 16:45:33.779,22 Mar 2020 16:57:10.198,696.419
457,22 Mar 2020 18:25:56.532,22 Mar 2020 18:33:38.647,462.115
458,23 Mar 2020 04:42:08.140,23 Mar 2020 04:51:30.059,561.918
459,23 Mar 2020 06:19:14.860,23 Mar 2020 06:30:41.967,687.107
460,23 Mar 2020 07:58:33.487,23 Mar 2020 08:04:59.747,386.260
461,23 Mar 2020 15:51:27.157,23 Mar 2020 16:01:59.274,632.117
462,23 Mar 2020 17:28:51.359,23 Mar 2020 17:39:54.510,663.151
463,24 Mar 2020 05:24:25.986,24 Mar 2020 05:35:40.469,674.483
464,24 Mar 2020 07:02:29.636,24 Mar 2020 07:12:44.410,614.774
465,24 Mar 2020 14:58:55.262,24 Mar 2020 15:06:05.080,429.818
466,24 Mar 2020 16:33:38.306,24 Mar 2020 16:45:10.555,692.249
467,24 Mar 2020 18:13:15.030,24 Mar 2020 18:22:04.584,529.553
468,25 Mar 2020 04:30:29.662,25 Mar 2020 04:38:54.614,504.952
469,25 Mar 2020 06:07:14.287,25 Mar 2020 06:18:48.862,694.575
470,25 Mar 2020 07:46:12.054,25 Mar 2020 07:53:47.619,455.565
471,25 Mar 2020 15:39:50.201,25 Mar 2020 15:49:52.188,601.987
472,25 Mar 2020 17:16:40.749,25 Mar 2020 17:28:01.367,680.619
473,26 Mar 2020 05:12:33.773,26 Mar 2020 05:23:27.945,654.172
474,26 Mar 2020 06:50:23.307,26 Mar 2020 07:01:05.719,642.412
475,26 Mar 2020 14:47:47.215,26 Mar 2020 14:53:40.578,353.363
476,26 Mar 2020 16:21:46.760,26 Mar 2020 16:33:09.373,682.612
477,26 Mar 2020 18:00:43.024,26 Mar 2020 18:10:23.742,580.718
478,27 Mar 2020 04:18:59.340,27 Mar 2020 04:26:08.267,428.927
479,27 Mar 2020 05:55:15.271,27 Mar 2020 06:06:51.808,696.537
480,27 Mar 2020 07:33:56.042,27 Mar 2020 07:42:27.528,511.486
481,27 Mar 2020 15:28:17.826,27 Mar 2020 15:37:42.991,565.165
482,27 Mar 2020 17:04:34.654,27 Mar 2020 17:16:06.145,691.490
483,27 Mar 2020 18:46:35.832,27 Mar 2020 18:51:29.444,293.611
484,28 Mar 2020 05:00:44.220,28 Mar 2020 05:11:10.281,626.061
485,28 Mar 2020 06:38:18.718,28 Mar 2020 06:49:22.852,664.134
486,28 Mar 2020 08:18:31.583,28 Mar 2020 08:22:14.240,222.657
487,28 Mar 2020 14:36:54.846,28 Mar 2020 14:41:02.955,248.109
488,28 Mar 2020 16:09:59.153,28 Mar 2020 16:21:06.665,667.513
489,28 Mar 2020 17:48:18.301,28 Mar 2020 17:58:38.232,619.931
490,29 Mar 2020 04:07:44.030,29 Mar 2020 04:13:04.047,320.017
491,29 Mar 2020 05:43:17.896,29 Mar 2020 05:54:50.716,692.820
492,29 Mar 2020 07:21:43.685,29 Mar 2020 07:31:01.269,557.583
493,29 Mar 2020 15:16:50.546,29 Mar 2020 15:25:31.189,520.642
494,29 Mar 2020 16:52:32.804,29 Mar 2020 17:04:09.087,696.283
495,29 Mar 2020 18:33:26.590,29 Mar 2020 18:40:18.614,412.024
496,30 Mar 2020 04:48:57.997,30 Mar 2020 04:58:46.747,588.750
497,30 Mar 2020 06:26:15.725,30 Mar 2020 06:37:35.970,680.244
498,30 Mar 2020 08:05:49.748,30 Mar 2020 08:11:26.560,336.812
499,30 Mar 2020 15:58:15.536,30 Mar 2020 16:09:02.380,646.844
500,30 Mar 2020 17:35:59.618,30 Mar 2020 17:46:49.235,649.617
501,31 Mar 2020 03:57:22.990,31 Mar 2020 03:59:02.557,99.567
502,31 Mar 2020 05:31:22.321,31 Mar 2020 05:42:45.420,683.099
503,31 Mar 2020 07:09:34.052,31 Mar 2020 07:19:29.787,595.736
504,31 Mar 2020 15:05:29.221,31 Mar 2020 15:13:15.947,466.726
505,31 Mar 2020 16:40:35.015,31 Mar 2020 16:52:10.363,695.348
506,31 Mar 2020 18:20:37.695,31 Mar 2020 18:28:50.317,492.622
507,1 Apr 2020 04:37:16.175,1 Apr 2020 04:46:16.207,540.032
508,1 Apr 2020 06:14:14.267,1 Apr 2020 06:25:45.147,690.881
509,1 Apr 2020 07:53:23.549,1 Apr 2020 08:00:20.680,417.131
510,1 Apr 2020 15:46:36.059,1 Apr 2020 15:56:56.382,620.323
511,1 Apr 2020 17:23:46.193,1 Apr 2020 17:34:57.474,671.281
512,2 Apr 2020 05:19:28.770,2 Apr 2020 05:30:35.669,666.899
513,2 Apr 2020 06:57:26.603,2 Apr 2020 07:07:53.644,627.040
514,2 Apr 2020 14:54:15.421,2 Apr 2020 15:00:55.714,400.293
515,2 Apr 2020 16:28:41.182,2 Apr 2020 16:40:10.077,688.895
516,2 Apr 2020 18:08:00.522,2 Apr 2020 18:17:13.077,552.555
517,3 Apr 2020 04:25:40.628,3 Apr 2020 04:33:36.696,476.068
518,3 Apr 2020 06:02:14.334,3 Apr 2020 06:13:50.403,696.069
519,3 Apr 2020 07:41:04.681,3 Apr 2020 07:49:04.919,480.238
520,3 Apr 2020 15:35:00.966,3 Apr 2020 15:44:48.464,587.498
521,3 Apr 2020 17:11:37.503,3 Apr 2020 17:23:03.428,685.925
522,3 Apr 2020 18:54:38.959,3 Apr 2020 18:57:39.067,180.108
523,4 Apr 2020 05:07:37.601,4 Apr 2020 05:18:21.072,643.471
524,4 Apr 2020 06:45:21.023,4 Apr 2020 06:56:13.184,652.161
525,4 Apr 2020 08:26:20.667,4 Apr 2020 08:28:05.865,105.198
526,4 Apr 2020 14:43:12.627,4 Apr 2020 14:48:27.025,314.398
527,4 Apr 2020 16:16:51.274,4 Apr 2020 16:28:08.262,676.988
528,4 Apr 2020 17:55:31.747,4 Apr 2020 18:05:30.100,598.353
529,5 Apr 2020 04:14:15.265,5 Apr 2020 04:20:44.214,388.950
530,5 Apr 2020 05:50:15.987,5 Apr 2020 06:01:51.677,695.690
531,5 Apr 2020 07:28:50.341,5 Apr 2020 07:37:42.105,531.764
532,5 Apr 2020 15:23:30.641,5 Apr 2020 15:32:38.249,547.608
533,5 Apr 2020 16:59:33.208,5 Apr 2020 17:11:07.411,694.203
534,5 Apr 2020 18:41:03.202,5 Apr 2020 18:46:53.006,349.804
535,6 Apr 2020 04:55:49.339,6 Apr 2020 05:06:01.066,611.727
536,6 Apr 2020 06:33:17.112,6 Apr 2020 06:44:28.632,671.520
537,6 Apr 2020 08:13:10.909,6 Apr 2020 08:17:47.598,276.690
538,6 Apr 2020 14:32:32.753,6 Apr 2020 14:35:37.962,185.209
539,6 Apr 2020 16:05:05.319,6 Apr 2020 16:16:04.904,659.585
540,6 Apr 2020 17:43:09.659,6 Apr 2020 17:53:43.024,633.366
541,7 Apr 2020 04:03:11.680,7 Apr 2020 04:07:27.031,255.351
542,7 Apr 2020 05:38:19.340,7 Apr 2020 05:49:48.858,689.518
543,7 Apr 2020 07:16:39.204,7 Apr 2020 07:26:13.579,574.374
544,7 Apr 2020 15:12:05.708,7 Apr 2020 15:20:25.142,499.434
545,7 Apr 2020 16:47:33.065,7 Apr 2020 16:59:09.644,696.579
546,7 Apr 2020 18:28:04.268,7 Apr 2020 18:35:33.085,448.818
547,8 Apr 2020 04:44:04.786,8 Apr 2020 04:53:34.782,569.995
548,8 Apr 2020 06:21:14.758,8 Apr 2020 06:32:40.100,685.342
549,8 Apr 2020 08:00:37.458,8 Apr 2020 08:06:50.450,372.992
550,8 Apr 2020 15:53:23.406,8 Apr 2020 16:03:59.927,636.521
551,8 Apr 2020 17:30:53.245,8 Apr 2020 17:41:52.802,659.558
552,9 Apr 2020 05:26:24.574,9 Apr 2020 05:37:41.745,677.172
553,9 Apr 2020 07:04:30.530,9 Apr 2020 07:14:40.104,609.574
554,9 Apr 2020 15:00:47.268,9 Apr 2020 15:08:08.078,440.810
555,9 Apr 2020 16:35:36.935,9 Apr 2020 16:47:10.259,693.324
556,9 Apr 2020 18:15:20.846,9 Apr 2020 18:24:00.485,519.639
557,10 Apr 2020 04:32:25.276,10 Apr 2020 04:41:00.816,515.540
558,10 Apr 2020 06:09:13.934,10 Apr 2020 06:20:47.645,693.711
559,10 Apr 2020 07:48:14.834,10 Apr 2020 07:55:39.938,445.104
560,10 Apr 2020 15:41:45.720,10 Apr 2020 15:51:53.163,607.443
561,10 Apr 2020 17:18:41.848,10 Apr 2020 17:30:00.043,678.195
562,11 Apr 2020 05:14:31.966,11 Apr 2020 05:25:30.029,658.063
563,11 Apr 2020 06:52:23.893,11 Apr 2020 07:03:02.126,638.233
564,11 Apr 2020 14:49:37.427,11 Apr 2020 14:55:44.943,367.516
565,11 Apr 2020 16:23:44.742,11 Apr 2020 16:35:09.335,684.593
566,11 Apr 2020 18:02:47.455,11 Apr 2020 18:12:20.583,573.128
567,12 Apr 2020 04:20:53.298,12 Apr 2020 04:28:16.590,443.292
568,12 Apr 2020 05:57:14.655,12 Apr 2020 06:08:51.254,696.598
569,12 Apr 2020 07:35:58.083,12 Apr 2020 07:44:21.011,502.928
570,12 Apr 2020 15:30:12.555,12 Apr 2020 15:39:44.340,571.785
571,12 Apr 2020 17:06:35.023,12 Apr 2020 17:18:05.144,690.121
572,12 Apr 2020 18:48:50.627,12 Apr 2020 18:53:17.589,266.963
573,13 Apr 2020 05:02:41.932,13 Apr 2020 05:13:13.260,631.328
574,13 Apr 2020 06:40:19.027,13 Apr 2020 06:51:19.943,660.916
575,13 Apr 2020 08:20:41.581,13 Apr 2020 08:23:58.253,196.671
576,13 Apr 2020 14:38:41.546,13 Apr 2020 14:43:10.405,268.859
577,13 Apr 2020 16:11:56.479,13 Apr 2020 16:23:06.884,670.405
578,13 Apr 2020 17:50:21.626,13 Apr 2020 18:00:35.751,614.125
579,14 Apr 2020 04:09:34.596,14 Apr 2020 04:15:16.245,341.650
580,14 Apr 2020 05:45:16.999,14 Apr 2020 05:56:50.840,693.841
581,14 Apr 2020 07:23:45.194,14 Apr 2020 07:32:55.695,550.501
582,14 Apr 2020 15:18:44.384,14 Apr 2020 15:27:33.017,528.633
583,14 Apr 2020 16:54:32.482,14 Apr 2020 17:06:08.374,695.892
584,14 Apr 2020 18:35:35.947,14 Apr 2020 18:42:11.710,395.763
585,15 Apr 2020 04:50:55.095,15 Apr 2020 05:00:50.768,595.673
586,15 Apr 2020 06:28:15.772,15 Apr 2020 06:39:33.719,677.946
587,15 Apr 2020 08:07:54.873,15 Apr 2020 08:13:15.862,320.989
588,15 Apr 2020 14:28:31.363,15 Apr 2020 14:29:52.725,81.361
589,15 Apr 2020 16:00:12.190,15 Apr 2020 16:11:02.862,650.672
590,15 Apr 2020 17:38:02.001,15 Apr 2020 17:48:47.273,645.272
591,16 Apr 2020 03:58:53.683,16 Apr 2020 04:01:35.141,161.458
592,16 Apr 2020 05:33:21.111,16 Apr 2020 05:44:46.260,685.149
593,16 Apr 2020 07:11:35.151,16 Apr 2020 07:21:25.039,589.888
594,16 Apr 2020 15:07:21.988,16 Apr 2020 15:15:18.424,476.436
595,16 Apr 2020 16:42:34.027,16 Apr 2020 16:54:09.921,695.894
596,16 Apr 2020 18:22:44.537,16 Apr 2020 18:30:45.459,480.921
597,17 Apr 2020 04:39:12.440,17 Apr 2020 04:48:21.499,549.059
598,17 Apr 2020 06:16:14.063,17 Apr 2020 06:27:43.552,689.489
599,17 Apr 2020 07:55:26.944,17 Apr 2020 08:02:12.139,405.195
600,17 Apr 2020 15:48:32.011,17 Apr 2020 15:58:57.165,625.154
601,17 Apr 2020 17:25:47.743,17 Apr 2020 17:36:55.931,668.188
602,18 Apr 2020 05:21:27.202,18 Apr 2020 05:32:37.270,670.068
603,18 Apr 2020 06:59:27.365,18 Apr 2020 07:09:49.640,622.275
604,18 Apr 2020 14:56:06.776,18 Apr 2020 15:02:59.184,412.408
605,18 Apr 2020 16:30:39.546,18 Apr 2020 16:42:09.888,690.342
606,18 Apr 2020 18:10:05.716,18 Apr 2020 18:19:09.411,543.696
607,19 Apr 2020 04:27:35.660,19 Apr 2020 04:35:43.674,488.014
608,19 Apr 2020 06:04:13.873,19 Apr 2020 06:15:49.460,695.586
609,19 Apr 2020 07:43:07.118,19 Apr 2020 07:50:57.763,470.645
610,19 Apr 2020 15:36:56.169,19 Apr 2020 15:46:49.585,593.417
611,19 Apr 2020 17:13:38.293,19 Apr 2020 17:25:02.238,683.945
612,19 Apr 2020 18:57:06.563,19 Apr 2020 18:59:14.704,128.142
613,20 Apr 2020 05:09:35.607,20 Apr 2020 05:20:23.515,647.908
614,20 Apr 2020 06:47:21.490,20 Apr 2020 06:58:09.885,648.395
615,20 Apr 2020 14:45:01.733,20 Apr 2020 14:50:32.316,330.582
616,20 Apr 2020 16:18:48.986,20 Apr 2020 16:30:08.329,679.343
617,20 Apr 2020 17:57:35.689,20 Apr 2020 18:07:27.248,591.559
618,21 Apr 2020 04:16:08.156,21 Apr 2020 04:22:53.801,405.645
619,21 Apr 2020 05:52:15.261,21 Apr 2020 06:03:51.405,696.145
620,21 Apr 2020 07:30:52.141,21 Apr 2020 07:39:36.004,523.863
621,21 Apr 2020 15:25:25.015,21 Apr 2020 15:34:39.789,554.774
622,21 Apr 2020 17:01:33.288,21 Apr 2020 17:13:06.533,693.244
623,21 Apr 2020 18:43:15.021,21 Apr 2020 18:48:43.927,328.906
624,22 Apr 2020 04:57:46.814,22 Apr 2020 05:08:04.457,617.643
625,22 Apr 2020 06:35:17.311,22 Apr 2020 06:46:25.999,668.688
626,22 Apr 2020 08:15:18.032,22 Apr 2020 08:19:34.653,256.621
627,22 Apr 2020 14:34:16.024,22 Apr 2020 14:37:48.673,212.649
628,22 Apr 2020 16:07:02.368,22 Apr 2020 16:18:05.232,662.863
629,22 Apr 2020 17:45:12.574,22 Apr 2020 17:55:40.775,628.200
630,23 Apr 2020 04:04:59.181,23 Apr 2020 04:09:42.508,283.327
631,23 Apr 2020 05:40:18.318,23 Apr 2020 05:51:49.280,690.962
632,23 Apr 2020 07:18:40.528,23 Apr 2020 07:28:08.367,567.839
633,23 Apr 2020 15:13:59.132,23 Apr 2020 15:22:27.217,508.085
634,23 Apr 2020 16:49:32.467,23 Apr 2020 17:01:09.048,696.581
635,23 Apr 2020 18:30:12.416,23 Apr 2020 18:37:27.193,434.777
636,24 Apr 2020 04:46:01.572,24 Apr 2020 04:55:39.297,577.725
637,24 Apr 2020 06:23:14.706,24 Apr 2020 06:34:38.124,683.419
638,24 Apr 2020 08:02:41.712,24 Apr 2020 08:08:40.811,359.099
639,24 Apr 2020 15:55:19.773,24 Apr 2020 16:06:00.531,640.759
640,24 Apr 2020 17:32:55.271,24 Apr 2020 17:43:51.025,655.754
641,25 Apr 2020 05:28:23.223,25 Apr 2020 05:39:42.897,679.674
642,25 Apr 2020 07:06:31.483,25 Apr 2020 07:16:35.676,604.194
643,25 Apr 2020 15:02:39.503,25 Apr 2020 15:10:10.916,451.414
644,25 Apr 2020 16:37:35.682,25 Apr 2020 16:49:09.926,694.245
645,25 Apr 2020 18:17:26.939,25 Apr 2020 18:25:56.189,509.250
646,26 Apr 2020 04:34:21.096,26 Apr 2020 04:43:06.743,525.648
647,26 Apr 2020 06:11:13.629,26 Apr 2020 06:22:46.325,692.696
648,26 Apr 2020 07:50:17.772,26 Apr 2020 07:57:32.033,434.261
649,26 Apr 2020 15:43:41.368,26 Apr 2020 15:53:54.080,612.712
650,26 Apr 2020 17:20:43.076,26 Apr 2020 17:31:58.653,675.578
651,27 Apr 2020 05:16:30.232,27 Apr 2020 05:27:31.972,661.740
652,27 Apr 2020 06:54:24.529,27 Apr 2020 07:04:58.427,633.898
653,27 Apr 2020 14:51:28.001,27 Apr 2020 14:57:49.018,381.018
654,27 Apr 2020 16:25:42.833,27 Apr 2020 16:37:09.253,686.419
655,27 Apr 2020 18:04:52.094,27 Apr 2020 18:14:17.291,565.196
656,28 Apr 2020 04:22:47.607,28 Apr 2020 04:30:24.490,456.884
657,28 Apr 2020 05:59:14.089,28 Apr 2020 06:10:50.590,696.501
658,28 Apr 2020 07:38:00.223,28 Apr 2020 07:46:14.323,494.101
659,28 Apr 2020 15:32:07.428,28 Apr 2020 15:41:45.625,578.197
660,28 Apr 2020 17:08:35.517,28 Apr 2020 17:20:04.090,688.573
661,28 Apr 2020 18:51:07.280,28 Apr 2020 18:55:03.972,236.692
662,29 Apr 2020 05:04:39.734,29 Apr 2020 05:15:16.084,636.350
663,29 Apr 2020 06:42:19.382,29 Apr 2020 06:53:16.926,657.544
664,29 Apr 2020 08:22:53.649,29 Apr 2020 08:25:40.125,166.476
665,29 Apr 2020 14:40:29.098,29 Apr 2020 14:45:17.081,287.983
666,29 Apr 2020 16:13:53.911,29 Apr 2020 16:25:07.059,673.147
667,29 Apr 2020 17:52:25.121,29 Apr 2020 18:02:33.171,608.050
668,30 Apr 2020 04:11:25.979,30 Apr 2020 04:17:27.549,361.570
669,30 Apr 2020 05:47:16.152,30 Apr 2020 05:58:50.855,694.703
670,30 Apr 2020 07:25:46.776,30 Apr 2020 07:34:49.983,543.207
671,30 Apr 2020 15:20:38.383,30 Apr 2020 15:29:34.759,536.375
672,30 Apr 2020 16:56:32.280,30 Apr 2020 17:08:07.617,695.336
673,30 Apr 2020 18:37:45.892,30 Apr 2020 18:44:04.300,378.408
674,1 May 2020 04:52:52.311,1 May 2020 05:02:54.600,602.289
675,1 May 2020 06:30:15.870,1 May 2020 06:41:31.367,675.497
676,1 May 2020 08:10:00.448,1 May 2020 08:15:04.647,304.200
677,1 May 2020 14:30:02.419,1 May 2020 14:32:15.469,133.049
678,1 May 2020 16:02:08.959,1 May 2020 16:13:03.305,654.347
679,1 May 2020 17:40:04.533,1 May 2020 17:50:45.233,640.700
680,2 May 2020 04:00:33.648,2 May 2020 04:03:58.367,204.719
681,2 May 2020 05:35:19.958,2 May 2020 05:46:46.982,687.023
682,2 May 2020 07:13:36.312,2 May 2020 07:23:20.162,583.849
683,2 May 2020 15:09:14.950,2 May 2020 15:17:20.782,485.832
684,2 May 2020 16:44:33.157,2 May 2020 16:56:09.437,696.280
685,2 May 2020 18:24:51.719,2 May 2020 18:32:40.337,468.617
686,3 May 2020 04:41:08.869,3 May 2020 04:50:26.557,557.688
687,3 May 2020 06:18:13.900,3 May 2020 06:29:41.852,687.952
688,3 May 2020 07:57:30.550,3 May 2020 08:04:03.318,392.768
689,3 May 2020 15:50:28.084,3 May 2020 16:00:57.896,629.812
690,3 May 2020 17:27:49.427,3 May 2020 17:38:54.330,664.902
691,4 May 2020 05:23:25.700,4 May 2020 05:34:38.747,673.047
692,4 May 2020 07:01:28.180,4 May 2020 07:11:45.523,617.343
693,4 May 2020 14:57:58.401,4 May 2020 15:05:02.458,424.057
694,4 May 2020 16:32:38.015,4 May 2020 16:44:09.662,691.647
695,4 May 2020 18:12:11.152,4 May 2020 18:21:05.580,534.429
696,5 May 2020 04:29:30.944,5 May 2020 04:37:50.330,499.386
697,5 May 2020 06:06:13.461,5 May 2020 06:17:48.409,694.948
698,5 May 2020 07:45:09.683,5 May 2020 07:52:50.407,460.724
699,5 May 2020 15:38:51.501,5 May 2020 15:48:50.649,599.148
700,5 May 2020 17:15:39.213,5 May 2020 17:27:01.001,681.788
701,5 May 2020 19:00:07.670,5 May 2020 19:00:16.930,9.260
702,6 May 2020 05:11:33.692,6 May 2020 05:22:25.812,652.120
703,6 May 2020 06:49:22.006,6 May 2020 07:00:06.471,644.466
704,6 May 2020 14:46:51.325,6 May 2020 14:52:37.203,345.878
705,6 May 2020 16:20:46.806,6 May 2020 16:32:08.352,681.546
706,6 May 2020 17:59:39.824,6 May 2020 18:09:24.278,584.454
707,7 May 2020 04:18:01.521,7 May 2020 04:25:02.844,421.323
708,7 May 2020 05:54:14.579,7 May 2020 06:05:51.023,696.444
709,7 May 2020 07:32:54.027,7 May 2020 07:41:29.745,515.718
710,7 May 2020 15:27:19.532,7 May 2020 15:36:41.252,561.720
711,7 May 2020 17:03:33.484,7 May 2020 17:15:05.612,692.128
712,7 May 2020 18:45:27.836,7 May 2020 18:50:33.930,306.094
713,8 May 2020 04:59:44.391,8 May 2020 05:10:07.685,623.294
714,8 May 2020 06:37:17.556,8 May 2020 06:48:23.263,665.707
715,8 May 2020 08:17:26.062,8 May 2020 08:21:20.739,234.677
716,8 May 2020 14:36:00.981,8 May 2020 14:39:57.767,236.786
717,8 May 2020 16:08:59.530,8 May 2020 16:20:05.518,665.987
718,8 May 2020 17:47:15.652,8 May 2020 17:57:38.433,622.781
719,9 May 2020 04:06:48.155,9 May 2020 04:11:56.435,308.280
720,9 May 2020 05:42:17.347,9 May 2020 05:53:49.584,692.238
721,9 May 2020 07:20:41.928,9 May 2020 07:30:03.017,561.089
722,9 May 2020 15:15:52.719,9 May 2020 15:24:29.197,516.478
723,9 May 2020 16:51:31.986,9 May 2020 17:03:08.408,696.422
724,9 May 2020 18:32:21.012,9 May 2020 18:39:20.932,419.920
725,10 May 2020 04:47:58.491,10 May 2020 04:57:43.611,585.121
726,10 May 2020 06:25:14.692,10 May 2020 06:36:36.043,681.352
727,10 May 2020 08:04:46.276,10 May 2020 08:10:30.787,344.510
728,10 May 2020 15:57:16.257,10 May 2020 16:08:01.088,644.831
729,10 May 2020 17:34:57.440,10 May 2020 17:45:49.181,651.741
730,11 May 2020 03:56:50.908,11 May 2020 03:57:30.900,39.992
731,11 May 2020 05:30:21.933,11 May 2020 05:41:43.927,681.994
732,11 May 2020 07:08:32.497,11 May 2020 07:18:31.126,598.629
733,11 May 2020 15:04:31.958,11 May 2020 15:12:13.609,461.651
734,11 May 2020 16:39:34.532,11 May 2020 16:51:09.548,695.016
735,11 May 2020 18:19:33.318,11 May 2020 18:27:51.681,498.363
736,12 May 2020 04:36:17.106,12 May 2020 04:45:12.408,535.302
737,12 May 2020 06:13:13.361,12 May 2020 06:24:44.894,691.533
738,12 May 2020 07:52:20.882,12 May 2020 07:59:23.889,423.007
739,12 May 2020 15:45:37.140,12 May 2020 15:55:54.944,617.804
740,12 May 2020 17:22:44.433,12 May 2020 17:33:57.213,672.780
741,13 May 2020 05:18:28.568,13 May 2020 05:29:33.781,665.213
742,13 May 2020 06:56:25.216,13 May 2020 07:06:54.607,629.391
743,13 May 2020 14:53:18.905,13 May 2020 14:59:52.840,393.934
744,13 May 2020 16:27:41.034,13 May 2020 16:39:09.130,688.096
745,13 May 2020 18:06:56.946,13 May 2020 18:16:13.860,556.914
746,14 May 2020 04:24:42.227,14 May 2020 04:32:32.000,469.773
747,14 May 2020 06:01:13.563,14 May 2020 06:12:49.817,696.255
748,14 May 2020 07:40:02.474,14 May 2020 07:48:07.457,484.984
749,14 May 2020 15:34:02.433,14 May 2020 15:43:46.846,584.413
750,14 May 2020 17:10:36.126,14 May 2020 17:22:02.988,686.863
751,14 May 2020 18:53:26.604,14 May 2020 18:56:47.765,201.161
752,15 May 2020 05:06:37.621,15 May 2020 05:17:18.754,641.132
753,15 May 2020 06:44:19.782,15 May 2020 06:55:13.799,654.016
754,15 May 2020 08:25:09.230,15 May 2020 08:27:18.407,129.177
755,15 May 2020 14:42:17.344,15 May 2020 14:47:23.132,305.788
756,15 May 2020 16:15:51.458,15 May 2020 16:27:07.191,675.733
757,15 May 2020 17:54:28.793,15 May 2020 18:04:30.482,601.689
758,16 May 2020 04:13:18.043,16 May 2020 04:19:38.097,380.054
759,16 May 2020 05:49:15.354,16 May 2020 06:00:50.755,695.401
760,16 May 2020 07:27:48.444,16 May 2020 07:36:44.118,535.673
761,16 May 2020 15:22:32.536,16 May 2020 15:31:36.419,543.883
762,16 May 2020 16:58:32.187,16 May 2020 17:10:06.818,694.630
763,16 May 2020 18:39:56.503,16 May 2020 18:45:56.304,359.801
764,17 May 2020 04:54:49.637,17 May 2020 05:04:58.257,608.621
765,17 May 2020 06:32:16.007,17 May 2020 06:43:28.902,672.895
766,17 May 2020 08:12:06.556,17 May 2020 08:16:52.834,286.279
767,17 May 2020 14:31:41.142,17 May 2020 14:34:30.627,169.484
768,17 May 2020 16:04:05.841,17 May 2020 16:15:03.700,657.860
769,17 May 2020 17:42:07.217,17 May 2020 17:52:43.115,635.898
770,18 May 2020 04:02:17.731,18 May 2020 04:06:17.394,239.663
771,18 May 2020 05:37:18.860,18 May 2020 05:48:47.580,688.720
772,18 May 2020 07:15:37.538,18 May 2020 07:25:15.154,577.615
773,18 May 2020 15:11:08.100,18 May 2020 15:19:23.028,494.928
774,18 May 2020 16:46:32.391,18 May 2020 16:58:08.910,696.519
775,18 May 2020 18:26:59.268,18 May 2020 18:34:34.932,455.664
776,19 May 2020 04:43:05.449,19 May 2020 04:52:31.390,565.941
777,19 May 2020 06:20:13.783,19 May 2020 06:31:40.041,686.258
778,19 May 2020 07:59:34.392,19 May 2020 08:05:54.191,379.800
779,19 May 2020 15:52:24.276,19 May 2020 16:02:58.579,634.303
780,19 May 2020 17:29:51.248,19 May 2020 17:40:52.658,661.410
781,20 May 2020 05:25:24.262,20 May 2020 05:36:40.088,675.827
782,20 May 2020 07:03:29.049,20 May 2020 07:13:41.283,612.234
783,20 May 2020 14:59:50.281,20 May 2020 15:07:05.552,435.271
784,20 May 2020 16:34:36.599,20 May 2020 16:46:09.391,692.793
785,20 May 2020 18:14:16.842,20 May 2020 18:23:01.574,524.732
786,21 May 2020 04:31:26.454,21 May 2020 04:39:56.679,510.225
787,21 May 2020 06:08:13.087,21 May 2020 06:19:47.256,694.169
788,21 May 2020 07:47:12.384,21 May 2020 07:54:42.842,450.458
789,21 May 2020 15:40:46.959,21 May 2020 15:50:51.654,604.696
790,21 May 2020 17:17:40.253,21 May 2020 17:28:59.704,679.451
791,22 May 2020 05:13:31.853,22 May 2020 05:24:27.969,656.116
792,22 May 2020 06:51:22.569,22 May 2020 07:02:02.946,640.376
793,22 May 2020 14:48:41.332,22 May 2020 14:54:41.739,360.407
794,22 May 2020 16:22:44.736,22 May 2020 16:34:08.337,683.601
795,22 May 2020 18:01:44.158,22 May 2020 18:11:21.184,577.026
796,23 May 2020 04:19:55.299,23 May 2020 04:27:11.398,436.099
797,23 May 2020 05:56:13.945,23 May 2020 06:07:50.529,696.584
798,23 May 2020 07:34:56.012,23 May 2020 07:43:23.322,507.310
799,23 May 2020 15:29:14.194,23 May 2020 15:38:42.641,568.448
800,23 May 2020 17:05:33.802,23 May 2020 17:17:04.638,690.836
801,23 May 2020 18:47:41.892,23 May 2020 18:52:22.781,280.889
802,24 May 2020 05:01:42.062,24 May 2020 05:12:10.747,628.685
803,24 May 2020 06:39:17.845,24 May 2020 06:50:20.414,662.569
804,24 May 2020 08:19:35.278,24 May 2020 08:23:05.568,210.290
805,24 May 2020 14:37:47.164,24 May 2020 14:42:05.708,258.544
806,24 May 2020 16:10:56.803,24 May 2020 16:22:05.758,668.955
807,24 May 2020 17:49:18.895,24 May 2020 17:59:36.003,617.108
808,25 May 2020 04:08:38.256,25 May 2020 04:14:09.153,330.898
809,25 May 2020 05:44:16.431,25 May 2020 05:55:49.774,693.342
810,25 May 2020 07:22:43.395,25 May 2020 07:31:57.526,554.130
811,25 May 2020 15:17:46.474,25 May 2020 15:26:31.079,524.605
812,25 May 2020 16:53:31.610,25 May 2020 17:05:07.722,696.112
813,25 May 2020 18:34:30.105,25 May 2020 18:41:14.256,404.150
814,26 May 2020 04:49:55.534,26 May 2020 04:59:47.730,592.196
815,26 May 2020 06:27:14.722,26 May 2020 06:38:33.858,679.136
816,26 May 2020 08:06:51.197,26 May 2020 08:12:20.336,329.139
817,26 May 2020 14:27:57.038,26 May 2020 14:28:28.187,31.148
818,26 May 2020 15:59:12.855,26 May 2020 16:10:01.604,648.749
819,26 May 2020 17:36:59.753,26 May 2020 17:47:47.256,647.503
820,27 May 2020 03:58:05.664,27 May 2020 04:00:19.466,133.802
821,27 May 2020 05:32:20.699,27 May 2020 05:43:44.829,684.130
822,27 May 2020 07:10:33.566,27 May 2020 07:20:26.447,592.882
823,27 May 2020 15:06:24.617,27 May 2020 15:14:16.163,471.545
824,27 May 2020 16:41:33.495,27 May 2020 16:53:09.132,695.637
825,27 May 2020 18:21:40.002,27 May 2020 18:29:46.941,486.938
826,28 May 2020 04:38:13.297,28 May 2020 04:47:17.822,544.525
827,28 May 2020 06:15:13.139,28 May 2020 06:26:43.356,690.217
828,28 May 2020 07:54:24.174,28 May 2020 08:01:15.492,411.318
829,28 May 2020 15:47:33.033,28 May 2020 15:57:55.754,622.721
830,28 May 2020 17:24:45.920,28 May 2020 17:35:55.703,669.783
831,29 May 2020 05:20:26.972,29 May 2020 05:31:35.452,668.481
832,29 May 2020 06:58:25.953,29 May 2020 07:08:50.671,624.719
833,29 May 2020 14:55:10.111,29 May 2020 15:01:56.430,406.319
834,29 May 2020 16:29:39.346,29 May 2020 16:41:08.970,689.624
835,29 May 2020 18:09:02.027,29 May 2020 18:18:10.274,548.247
836,30 May 2020 04:26:37.133,30 May 2020 04:34:39.152,482.019
837,30 May 2020 06:03:13.083,30 May 2020 06:14:48.935,695.852
838,30 May 2020 07:42:04.847,30 May 2020 07:50:00.404,475.557
839,30 May 2020 15:35:57.570,30 May 2020 15:45:48.005,590.435
840,30 May 2020 17:12:36.858,30 May 2020 17:24:01.829,684.971
841,30 May 2020 18:55:50.377,30 May 2020 18:58:27.196,156.818
842,31 May 2020 05:08:35.592,31 May 2020 05:19:21.273,645.681
843,31 May 2020 06:46:20.228,31 May 2020 06:57:10.555,650.327
844,31 May 2020 08:27:33.296,31 May 2020 08:28:48.134,74.838
845,31 May 2020 14:44:06.180,31 May 2020 14:49:28.668,322.488
846,31 May 2020 16:17:49.117,31 May 2020 16:29:07.279,678.162
847,31 May 2020 17:56:32.647,31 May 2020 18:06:27.692,595.045
848,1 Jun 2020 04:15:10.686,1 Jun 2020 04:21:47.985,397.299
849,1 Jun 2020 05:51:14.607,1 Jun 2020 06:02:50.539,695.932
850,1 Jun 2020 07:29:50.195,1 Jun 2020 07:38:38.101,527.906
851,1 Jun 2020 15:24:26.835,1 Jun 2020 15:33:38.001,551.166
852,1 Jun 2020 17:00:32.212,1 Jun 2020 17:12:05.966,693.754
853,1 Jun 2020 18:42:07.888,1 Jun 2020 18:47:47.619,339.731
854,2 Jun 2020 04:56:47.065,2 Jun 2020 05:07:01.737,614.672
855,2 Jun 2020 06:34:16.186,2 Jun 2020 06:45:26.332,670.146
856,2 Jun 2020 08:14:13.291,2 Jun 2020 08:18:40.321,267.030
857,2 Jun 2020 14:33:23.245,2 Jun 2020 14:36:42.466,199.222
858,2 Jun 2020 16:06:02.835,2 Jun 2020 16:17:04.053,661.219
859,2 Jun 2020 17:44:10.056,2 Jun 2020 17:54:40.909,630.853
860,3 Jun 2020 04:04:04.304,3 Jun 2020 04:08:33.849,269.546
861,3 Jun 2020 05:39:17.813,3 Jun 2020 05:50:48.064,690.251
862,3 Jun 2020 07:17:38.826,3 Jun 2020 07:27:10.013,571.187
863,3 Jun 2020 15:13:01.428,3 Jun 2020 15:21:25.162,503.733
864,3 Jun 2020 16:48:31.742,3 Jun 2020 17:00:08.338,696.596
865,3 Jun 2020 18:29:07.208,3 Jun 2020 18:36:29.208,442.000
866,4 Jun 2020 04:45:02.172,4 Jun 2020 04:54:36.011,573.839
867,4 Jun 2020 06:22:13.710,4 Jun 2020 06:33:38.125,684.415
868,4 Jun 2020 08:01:38.492,4 Jun 2020 08:07:44.739,366.247
869,4 Jun 2020 15:54:20.585,4 Jun 2020 16:04:59.213,638.629
870,4 Jun 2020 17:31:53.207,4 Jun 2020 17:42:50.919,657.712
871,5 Jun 2020 05:27:22.885,5 Jun 2020 05:38:41.311,678.426
872,5 Jun 2020 07:05:29.973,5 Jun 2020 07:15:36.924,606.951
873,5 Jun 2020 15:01:42.397,5 Jun 2020 15:09:08.480,446.083
874,5 Jun 2020 16:36:35.285,5 Jun 2020 16:48:09.083,693.798
875,5 Jun 2020 18:16:22.792,5 Jun 2020 18:24:57.375,514.582
876,6 Jun 2020 04:33:22.180,6 Jun 2020 04:42:02.746,520.566
877,6 Jun 2020 06:10:12.762,6 Jun 2020 06:21:45.990,693.228
878,6 Jun 2020 07:49:15.238,6 Jun 2020 07:56:35.062,439.824
879,6 Jun 2020 15:42:42.544,6 Jun 2020 15:52:52.604,610.060
880,6 Jun 2020 17:19:41.419,6 Jun 2020 17:30:58.349,676.930
881,7 Jun 2020 05:15:30.088,7 Jun 2020 05:26:29.984,659.896
882,7 Jun 2020 06:53:23.181,7 Jun 2020 07:03:59.303,636.122
883,7 Jun 2020 14:50:31.722,7 Jun 2020 14:56:45.971,374.249
884,7 Jun 2020 16:24:42.771,7 Jun 2020 16:36:08.283,685.511
885,7 Jun 2020 18:03:48.696,7 Jun 2020 18:13:17.959,569.263
886,8 Jun 2020 04:21:49.443,8 Jun 2020 04:29:19.509,450.066
887,8 Jun 2020 05:58:13.352,8 Jun 2020 06:09:49.923,696.571
888,8 Jun 2020 07:36:58.098,8 Jun 2020 07:45:16.725,498.627
889,8 Jun 2020 15:31:08.997,8 Jun 2020 15:40:43.966,574.969
890,8 Jun 2020 17:07:34.233,8 Jun 2020 17:19:03.611,689.378
891,8 Jun 2020 18:49:57.543,8 Jun 2020 18:54:10.121,252.577
892,9 Jun 2020 05:03:39.825,9 Jun 2020 05:14:13.651,633.827
893,9 Jun 2020 06:41:18.178,9 Jun 2020 06:52:17.455,659.277
894,9 Jun 2020 08:21:46.165,9 Jun 2020 08:24:48.657,182.492
895,9 Jun 2020 14:39:34.299,9 Jun 2020 14:44:12.766,278.468
896,9 Jun 2020 16:12:54.181,9 Jun 2020 16:24:05.959,671.778
897,9 Jun 2020 17:51:22.309,9 Jun 2020 18:01:33.474,611.166
898,10 Jun 2020 04:10:29.255,10 Jun 2020 04:16:20.889,351.635
899,10 Jun 2020 05:46:15.563,10 Jun 2020 05:57:49.844,694.282
900,10 Jun 2020 07:24:44.940,10 Jun 2020 07:33:51.890,546.949
901,10 Jun 2020 15:19:40.393,10 Jun 2020 15:28:32.868,532.475
902,10 Jun 2020 16:55:31.350,10 Jun 2020 17:07:06.990,695.640
903,10 Jun 2020 18:36:39.755,10 Jun 2020 18:43:07.105,387.350
904,11 Jun 2020 04:51:52.698,11 Jun 2020 05:01:51.659,598.961
905,11 Jun 2020 06:29:14.800,11 Jun 2020 06:40:31.561,676.761
906,11 Jun 2020 08:08:56.530,11 Jun 2020 08:14:09.403,312.874
907,11 Jun 2020 14:29:14.507,11 Jun 2020 14:31:04.488,109.981
908,11 Jun 2020 16:01:09.567,11 Jun 2020 16:12:02.069,652.502
909,11 Jun 2020 17:39:02.212,11 Jun 2020 17:49:45.260,643.048
910,12 Jun 2020 03:59:42.138,12 Jun 2020 04:02:46.233,184.095
911,12 Jun 2020 05:34:19.522,12 Jun 2020 05:45:45.615,686.093
912,12 Jun 2020 07:12:34.694,12 Jun 2020 07:22:21.640,586.946
913,12 Jun 2020 15:08:17.479,12 Jun 2020 15:16:18.591,481.112
914,12 Jun 2020 16:43:32.566,12 Jun 2020 16:55:08.671,696.105
915,12 Jun 2020 18:23:47.016,12 Jun 2020 18:31:41.949,474.934
916,13 Jun 2020 04:40:09.652,13 Jun 2020 04:49:22.997,553.346
917,13 Jun 2020 06:17:12.961,13 Jun 2020 06:28:41.712,688.751
918,13 Jun 2020 07:56:27.664,13 Jun 2020 08:03:06.824,399.159
919,13 Jun 2020 15:49:29.045,13 Jun 2020 15:59:56.517,627.472
920,13 Jun 2020 17:26:47.539,13 Jun 2020 17:37:54.134,666.594
921,14 Jun 2020 05:22:25.440,14 Jun 2020 05:33:36.996,671.556
922,14 Jun 2020 07:00:26.740,14 Jun 2020 07:10:46.615,619.875
923,14 Jun 2020 14:57:01.597,14 Jun 2020 15:03:59.811,418.214
924,14 Jun 2020 16:31:37.763,14 Jun 2020 16:43:08.766,691.003
925,14 Jun 2020 18:11:07.347,14 Jun 2020 18:20:06.523,539.177
926,15 Jun 2020 04:28:32.298,15 Jun 2020 04:36:45.969,493.670
927,15 Jun 2020 06:05:12.647,15 Jun 2020 06:16:47.940,695.293
928,15 Jun 2020 07:44:07.340,15 Jun 2020 07:51:53.157,465.817
929,15 Jun 2020 15:37:52.836,15 Jun 2020 15:47:49.103,596.268
930,15 Jun 2020 17:14:37.717,15 Jun 2020 17:26:00.618,682.901
931,15 Jun 2020 18:58:24.598,15 Jun 2020 18:59:56.263,91.665
932,16 Jun 2020 05:10:33.641,16 Jun 2020 05:21:23.645,650.004
933,16 Jun 2020 06:48:20.719,16 Jun 2020 06:59:07.205,646.486
934,16 Jun 2020 14:45:55.525,16 Jun 2020 14:51:33.764,338.239
935,16 Jun 2020 16:19:46.882,16 Jun 2020 16:31:07.331,680.449
936,16 Jun 2020 17:58:36.685,16 Jun 2020 18:08:24.778,588.093
937,17 Jun 2020 04:17:03.829,17 Jun 2020 04:23:57.294,413.464
938,17 Jun 2020 05:53:13.903,17 Jun 2020 06:04:50.215,696.312
939,17 Jun 2020 07:31:52.036,17 Jun 2020 07:40:31.932,519.896
940,17 Jun 2020 15:26:21.276,17 Jun 2020 15:35:39.507,558.231
941,17 Jun 2020 17:02:32.355,17 Jun 2020 17:14:05.069,692.714
942,17 Jun 2020 18:44:20.183,17 Jun 2020 18:49:38.102,317.918
943,18 Jun 2020 04:58:44.597,18 Jun 2020 05:09:05.046,620.449
944,18 Jun 2020 06:36:16.407,18 Jun 2020 06:47:23.648,667.241
945,18 Jun 2020 08:16:20.819,18 Jun 2020 08:20:26.942,246.123
946,18 Jun 2020 14:35:07.406,18 Jun 2020 14:38:52.321,224.915
947,18 Jun 2020 16:07:59.939,18 Jun 2020 16:19:04.363,664.424
948,18 Jun 2020 17:46:13.054,18 Jun 2020 17:56:38.613,625.559
949,19 Jun 2020 04:05:52.599,19 Jun 2020 04:10:48.501,295.902
950,19 Jun 2020 05:41:16.820,19 Jun 2020 05:52:48.426,691.607
951,19 Jun 2020 07:19:40.184,19 Jun 2020 07:29:04.735,564.551
952,19 Jun 2020 15:14:54.929,19 Jun 2020 15:23:27.195,512.265
953,19 Jun 2020 16:50:31.201,19 Jun 2020 17:02:07.721,696.520
954,19 Jun 2020 18:31:15.579,19 Jun 2020 18:38:23.132,427.553
955,20 Jun 2020 04:46:59.029,20 Jun 2020 04:56:40.425,581.396
956,20 Jun 2020 06:24:13.676,20 Jun 2020 06:35:36.097,682.421
957,20 Jun 2020 08:03:42.884,20 Jun 2020 08:09:34.923,352.039
958,20 Jun 2020 15:56:17.008,20 Jun 2020 16:06:59.800,642.791
959,20 Jun 2020 17:33:55.305,20 Jun 2020 17:44:49.104,653.799
960,21 Jun 2020 05:29:21.566,21 Jun 2020 05:40:42.398,680.832
961,21 Jun 2020 07:07:30.951,21 Jun 2020 07:17:32.434,601.484
962,21 Jun 2020 15:03:34.737,21 Jun 2020 15:11:11.253,456.516
963,21 Jun 2020 16:38:34.086,21 Jun 2020 16:50:08.726,694.640
964,21 Jun 2020 18:18:29.030,21 Jun 2020 18:26:52.970,503.940
965,22 Jun 2020 04:35:18.105,22 Jun 2020 04:44:08.538,530.433
966,22 Jun 2020 06:12:12.472,22 Jun 2020 06:23:44.618,692.145
967,22 Jun 2020 07:51:18.251,22 Jun 2020 07:58:27.048,428.797
968,22 Jun 2020 15:44:38.251,22 Jun 2020 15:54:53.500,615.248
969,22 Jun 2020 17:21:42.712,22 Jun 2020 17:32:56.934,674.222
970,23 Jun 2020 05:17:28.391,23 Jun 2020 05:28:31.860,663.469
971,23 Jun 2020 06:55:23.839,23 Jun 2020 07:05:55.547,631.707
972,23 Jun 2020 14:52:22.455,23 Jun 2020 14:58:49.924,387.469
973,23 Jun 2020 16:26:40.916,23 Jun 2020 16:38:08.182,687.266
974,23 Jun 2020 18:05:53.444,23 Jun 2020 18:15:14.593,561.148
975,24 Jun 2020 04:23:43.916,24 Jun 2020 04:31:27.209,463.293
976,24 Jun 2020 06:00:12.806,24 Jun 2020 06:11:49.206,696.400
977,24 Jun 2020 07:39:00.288,24 Jun 2020 07:47:09.957,489.670
978,24 Jun 2020 15:33:03.931,24 Jun 2020 15:42:45.224,581.293
